{"type":"FeatureCollection","features":[{"type":"Feature","geometry":{"type":"Point","coordinates":[-3.706034091460556,40.407836142078146]},"properties":{"licencia_urbana":true,"anio_dataset":2018,"fecha_concesion":"19/02/2018","tipo_expediente":"OC Obras transformación locales en viviendas","uso":"Residencial","distrito":"CENTRO","direccion":"CALLE PEÑA DE FRANCIA 000005","procedimiento":"Procedimiento Ordinario Común"}},{"type":"Feature","geometry":{"type":"Point","coordinates":[-3.6994468148327395,40.40925312314986]},"properties":{"licencia_urbana":true,"anio_dataset":2018,"fecha_concesion":"01/02/2018","tipo_expediente":"REESTRUCTURACIÓN PUNTUAL","uso":"Residencial","distrito":"CENTRO","direccion":"CALLE ZURITA 000033","procedimiento":"Procedimiento Ordinario Abreviado"}},{"type":"Feature","geometry":{"type":"Point","coordinates":[-3.7117666675136594,40.41569265005719]},"properties":{"licencia_urbana":true,"anio_dataset":2018,"fecha_concesion":"01/02/2018","tipo_expediente":"OBRAS DE RESTAURACIÓN","uso":"Residencial","distrito":"CENTRO","direccion":"PLAZA SAN NICOLAS 000001","procedimiento":"Procedimiento Ordinario Común"}},{"type":"Feature","geometry":{"type":"Point","coordinates":[-3.694864096626039,40.42646271306509]},"properties":{"licencia_urbana":true,"anio_dataset":2018,"fecha_concesion":"06/07/2018","tipo_expediente":"REESTRUCTURACIÓN PUNTUAL","uso":"Residencial","distrito":"CENTRO","direccion":"CALLE ORELLANA 000011","procedimiento":"Procedimiento Ordinario Abreviado"}},{"type":"Feature","geometry":{"type":"Point","coordinates":[-3.7091182289493956,40.419301008471]},"properties":{"licencia_urbana":true,"anio_dataset":2018,"fecha_concesion":"13/11/2018","tipo_expediente":"OBRAS DE REESTRUCTURACIÓN PUNTUAL","uso":"Residencial","distrito":"CENTRO","direccion":"CALLE CAMPOMANES 000010","procedimiento":"Procedimiento Ordinario Común"}},{"type":"Feature","geometry":{"type":"Point","coordinates":[-3.7056464408672807,40.415336740775025]},"properties":{"licencia_urbana":true,"anio_dataset":2018,"fecha_concesion":"01/02/2018","tipo_expediente":"OBRAS DE CONSOLIDACIÓN","uso":"Residencial","distrito":"CENTRO","direccion":"PLAZA SANTA CRUZ 000006","procedimiento":"Procedimiento Ordinario Común"}},{"type":"Feature","geometry":{"type":"Point","coordinates":[-3.6944799429549837,40.42573294748696]},"properties":{"licencia_urbana":true,"anio_dataset":2018,"fecha_concesion":"03/04/2018","tipo_expediente":"OBRAS DE ACONDICIONAMIENTO PUNTUAL DE EDIFICIO CATALOGADO","uso":"Residencial","distrito":"CENTRO","direccion":"CALLE ARGENSOLA 000020","procedimiento":"Procedimiento Ordinario Común"}},{"type":"Feature","geometry":{"type":"Point","coordinates":[-3.7058715081219638,40.41471076984788]},"properties":{"licencia_urbana":true,"anio_dataset":2018,"fecha_concesion":"01/02/2018","tipo_expediente":"OBRAS DE RESTAURACIÓN","uso":"Dotacional","distrito":"CENTRO","direccion":"PLAZA PROVINCIA 000001","procedimiento":"Procedimiento Ordinario Común"}},{"type":"Feature","geometry":{"type":"Point","coordinates":[-3.7058715081219638,40.41471076984788]},"properties":{"licencia_urbana":true,"anio_dataset":2018,"fecha_concesion":"01/02/2018","tipo_expediente":"OBRAS DE RESTAURACIÓN","uso":"Dotacional","distrito":"CENTRO","direccion":"PLAZA PROVINCIA 000001","procedimiento":"Procedimiento Ordinario Común"}},{"type":"Feature","geometry":{"type":"Point","coordinates":[-3.698933438272532,40.40992587072567]},"properties":{"licencia_urbana":true,"anio_dataset":2018,"fecha_concesion":"26/03/2018","tipo_expediente":"OC Obras edif. para incr. nº viviendas","uso":"Residencial","distrito":"CENTRO","direccion":"CALLE TORRECILLA DEL LEAL 000029","procedimiento":"Procedimiento Ordinario Abreviado"}},{"type":"Feature","geometry":{"type":"Point","coordinates":[-3.713050184183046,40.41329734486848]},"properties":{"licencia_urbana":true,"anio_dataset":2018,"fecha_concesion":"19/02/2018","tipo_expediente":"OBRAS DE CONSOLIDACIÓN","uso":"Residencial","distrito":"CENTRO","direccion":"CUESTA CAÑOS VIEJOS 000001","procedimiento":"Procedimiento Ordinario Común"}},{"type":"Feature","geometry":{"type":"Point","coordinates":[-3.708105700918982,40.412027637483035]},"properties":{"licencia_urbana":true,"anio_dataset":2018,"fecha_concesion":"01/02/2018","tipo_expediente":"OC Obras edif. para incr. nº viviendas","uso":"Residencial","distrito":"CENTRO","direccion":"CALLE TOLEDO 000050","procedimiento":"Procedimiento Ordinario Abreviado"}},{"type":"Feature","geometry":{"type":"Point","coordinates":[-3.710771257435005,40.42311663400372]},"properties":{"licencia_urbana":true,"anio_dataset":2018,"fecha_concesion":"16/11/2018","tipo_expediente":"OBRAS DE CONSERVACIÓN","uso":"Residencial","distrito":"CENTRO","direccion":"CALLE GRAN VIA 000073","procedimiento":"Procedimiento Ordinario Común"}},{"type":"Feature","geometry":{"type":"Point","coordinates":[-3.70322292166133,40.414742855737074]},"properties":{"licencia_urbana":true,"anio_dataset":2018,"fecha_concesion":"19/11/2018","tipo_expediente":"OBRAS DE REESTRUCTURACIÓN PUNTUAL","uso":"Residencial","distrito":"CENTRO","direccion":"CALLE CARRETAS 000033","procedimiento":"Procedimiento Ordinario Común"}},{"type":"Feature","geometry":{"type":"Point","coordinates":[-3.711169172679205,40.42542878660621]},"properties":{"licencia_urbana":true,"anio_dataset":2018,"fecha_concesion":"12/11/2018","tipo_expediente":"OBRAS DE CONSOLIDACIÓN","uso":"Residencial","distrito":"CENTRO","direccion":"CALLE SAN BERNARDINO 000015","procedimiento":"Procedimiento Ordinario Común"}},{"type":"Feature","geometry":{"type":"Point","coordinates":[-3.7045489857082146,40.4092461993146]},"properties":{"licencia_urbana":true,"anio_dataset":2018,"fecha_concesion":"01/02/2018","tipo_expediente":"OBRAS DE CONSOLIDACIÓN","uso":"Residencial","distrito":"CENTRO","direccion":"CALLE CABESTREROS 000009","procedimiento":"Procedimiento Ordinario Común"}},{"type":"Feature","geometry":{"type":"Point","coordinates":[-3.6996096976523747,40.40961781522521]},"properties":{"licencia_urbana":true,"anio_dataset":2018,"fecha_concesion":"02/03/2018","tipo_expediente":"OBRAS DE CONSOLIDACIÓN","uso":"Residencial","distrito":"CENTRO","direccion":"CALLE BUENAVISTA 000032","procedimiento":"Procedimiento Ordinario Común"}},{"type":"Feature","geometry":{"type":"Point","coordinates":[-3.7056451262140353,40.412830252016015]},"properties":{"licencia_urbana":true,"anio_dataset":2018,"fecha_concesion":"02/03/2018","tipo_expediente":"OBRAS DE CONSOLIDACIÓN","uso":"Residencial","distrito":"CENTRO","direccion":"CALLE COLEGIATA 000004","procedimiento":"Procedimiento Ordinario Común"}},{"type":"Feature","geometry":{"type":"Point","coordinates":[-3.6947986789648453,40.42555859951913]},"properties":{"licencia_urbana":true,"anio_dataset":2018,"fecha_concesion":"20/11/2018","tipo_expediente":"OBRAS DE REESTRUCTURACIÓN PUNTUAL","uso":"Residencial","distrito":"CENTRO","direccion":"CALLE ARGENSOLA 000013","procedimiento":"Procedimiento Ordinario Común"}},{"type":"Feature","geometry":{"type":"Point","coordinates":[-3.7073916439775143,40.41118966238431]},"properties":{"licencia_urbana":true,"anio_dataset":2018,"fecha_concesion":"31/01/2018","tipo_expediente":"REESTRUCTURACIÓN PUNTUAL","uso":"Residencial","distrito":"CENTRO","direccion":"PLAZA CASCORRO 000022","procedimiento":"Procedimiento Ordinario Abreviado"}},{"type":"Feature","geometry":{"type":"Point","coordinates":[-3.699491749640415,40.42504192026806]},"properties":{"licencia_urbana":true,"anio_dataset":2018,"fecha_concesion":"31/01/2018","tipo_expediente":"OBRAS DE ACONDICIONAMIENTO PUNTUAL","uso":"Residencial","distrito":"CENTRO","direccion":"CALLE SAN LORENZO 000010","procedimiento":"Procedimiento Ordinario Abreviado"}},{"type":"Feature","geometry":{"type":"Point","coordinates":[-3.7050700453900753,40.4280808337775]},"properties":{"licencia_urbana":true,"anio_dataset":2018,"fecha_concesion":"18/09/2018","tipo_expediente":"OBRAS DE REESTRUCTURACIÓN PUNTUAL","uso":"Residencial","distrito":"CENTRO","direccion":"CALLE MONTELEON 000005","procedimiento":"Procedimiento Ordinario Común"}},{"type":"Feature","geometry":{"type":"Point","coordinates":[-3.710705650423796,40.41915657608189]},"properties":{"licencia_urbana":true,"anio_dataset":2018,"fecha_concesion":"18/09/2018","tipo_expediente":"OBRAS DE REESTRUCTURACIÓN PUNTUAL","uso":"Residencial","distrito":"CENTRO","direccion":"CALLE ARRIETA 000010","procedimiento":"Procedimiento Ordinario Común"}},{"type":"Feature","geometry":{"type":"Point","coordinates":[-3.707840124311086,40.41638838027087]},"properties":{"licencia_urbana":true,"anio_dataset":2018,"fecha_concesion":"18/09/2018","tipo_expediente":"REESTRUCTURACIÓN PUNTUAL","uso":"Residencial","distrito":"CENTRO","direccion":"CALLE BORDADORES 000003","procedimiento":"Procedimiento Ordinario Abreviado"}},{"type":"Feature","geometry":{"type":"Point","coordinates":[-3.711159341441377,40.42222316418991]},"properties":{"licencia_urbana":true,"anio_dataset":2018,"fecha_concesion":"23/10/2018","tipo_expediente":"OC Obras transformación locales en viviendas","uso":"Residencial","distrito":"CENTRO","direccion":"CALLE FOMENTO 000035","procedimiento":"Procedimiento Ordinario Común"}},{"type":"Feature","geometry":{"type":"Point","coordinates":[-3.7120109168944087,40.40936616492626]},"properties":{"licencia_urbana":true,"anio_dataset":2018,"fecha_concesion":"23/10/2018","tipo_expediente":"OC Obras transformación locales en viviendas","uso":"Residencial","distrito":"CENTRO","direccion":"CALLE CALATRAVA 000020","procedimiento":"Procedimiento Ordinario Común"}},{"type":"Feature","geometry":{"type":"Point","coordinates":[-3.7004914481086666,40.40963508921432]},"properties":{"licencia_urbana":true,"anio_dataset":2018,"fecha_concesion":"12/11/2018","tipo_expediente":"OBRAS DE REESTRUCTURACIÓN PUNTUAL","uso":"Residencial","distrito":"CENTRO","direccion":"CALLE PRIMAVERA 000008","procedimiento":"Procedimiento Ordinario Común"}},{"type":"Feature","geometry":{"type":"Point","coordinates":[-3.706805088197485,40.41961814682436]},"properties":{"licencia_urbana":true,"anio_dataset":2018,"fecha_concesion":"16/07/2018","tipo_expediente":"OBRAS DE REESTRUCTURACIÓN PUNTUAL","uso":"Residencial","distrito":"CENTRO","direccion":"CALLE PRECIADOS 000033","procedimiento":"Procedimiento Ordinario Común"}},{"type":"Feature","geometry":{"type":"Point","coordinates":[-3.6944799429549837,40.42573294748696]},"properties":{"licencia_urbana":true,"anio_dataset":2018,"fecha_concesion":"03/04/2018","tipo_expediente":"OBRAS DE ACONDICIONAMIENTO PUNTUAL DE EDIFICIO CATALOGADO","uso":"Residencial","distrito":"CENTRO","direccion":"CALLE ARGENSOLA 000020","procedimiento":"Procedimiento Ordinario Común"}},{"type":"Feature","geometry":{"type":"Point","coordinates":[-3.7058715081219638,40.41471076984788]},"properties":{"licencia_urbana":true,"anio_dataset":2018,"fecha_concesion":"01/02/2018","tipo_expediente":"OBRAS DE RESTAURACIÓN","uso":"Dotacional","distrito":"CENTRO","direccion":"PLAZA PROVINCIA 000001","procedimiento":"Procedimiento Ordinario Común"}},{"type":"Feature","geometry":{"type":"Point","coordinates":[-3.713640994274903,40.41273576950551]},"properties":{"licencia_urbana":true,"anio_dataset":2018,"fecha_concesion":"16/07/2018","tipo_expediente":"OC Obras edif. para incr. nº viviendas","uso":"Residencial","distrito":"CENTRO","direccion":"CALLE BAILEN 000033","procedimiento":"Procedimiento Ordinario Abreviado"}},{"type":"Feature","geometry":{"type":"Point","coordinates":[-3.7013241181598886,40.40770588735238]},"properties":{"licencia_urbana":true,"anio_dataset":2018,"fecha_concesion":"02/03/2018","tipo_expediente":"OBRAS DE REESTRUCTURACIÓN PUNTUAL","uso":"Residencial","distrito":"CENTRO","direccion":"CALLE AMPARO 000079","procedimiento":"Procedimiento Ordinario Común"}},{"type":"Feature","geometry":{"type":"Point","coordinates":[-3.698540713729392,40.41993044835759]},"properties":{"licencia_urbana":true,"anio_dataset":2018,"fecha_concesion":"08/03/2018","tipo_expediente":"OBRAS DE CONSERVACIÓN","uso":"Residencial","distrito":"CENTRO","direccion":"CALLE REINA 000031","procedimiento":"Procedimiento Ordinario Común"}},{"type":"Feature","geometry":{"type":"Point","coordinates":[-3.7022128761779762,40.41146123254668]},"properties":{"licencia_urbana":true,"anio_dataset":2018,"fecha_concesion":"01/02/2018","tipo_expediente":"OC Obras transformación locales en viviendas","uso":"Residencial","distrito":"CENTRO","direccion":"CALLE CALVARIO 000014","procedimiento":"Procedimiento Ordinario Común"}},{"type":"Feature","geometry":{"type":"Point","coordinates":[-3.6982573455773804,40.422404690433076]},"properties":{"licencia_urbana":true,"anio_dataset":2018,"fecha_concesion":"26/03/2018","tipo_expediente":"OBRAS DE CONSOLIDACIÓN","uso":"Residencial","distrito":"CENTRO","direccion":"CALLE AUGUSTO FIGUEROA 000029","procedimiento":"Procedimiento Ordinario Común"}},{"type":"Feature","geometry":{"type":"Point","coordinates":[-3.699027350718751,40.42250877638591]},"properties":{"licencia_urbana":true,"anio_dataset":2018,"fecha_concesion":"03/04/2018","tipo_expediente":"OBRAS EN EXTERIORES","uso":"Residencial","distrito":"CENTRO","direccion":"CALLE AUGUSTO FIGUEROA 000016","procedimiento":"Procedimiento Ordinario Común"}},{"type":"Feature","geometry":{"type":"Point","coordinates":[-3.694836982315183,40.410422635937984]},"properties":{"licencia_urbana":true,"anio_dataset":2018,"fecha_concesion":"31/01/2018","tipo_expediente":"OBRAS DE ACONDICIONAMIENTO PUNTUAL","uso":"Residencial","distrito":"CENTRO","direccion":"CALLE ATOCHA 000111","procedimiento":"Procedimiento Ordinario Abreviado"}},{"type":"Feature","geometry":{"type":"Point","coordinates":[-3.7089284121848007,40.425742369163]},"properties":{"licencia_urbana":true,"anio_dataset":2018,"fecha_concesion":"11/12/2018","tipo_expediente":"OC Obras edif. para incr. nº viviendas","uso":"Residencial","distrito":"CENTRO","direccion":"CALLE NOVICIADO 000018","procedimiento":"Procedimiento Ordinario Abreviado"}},{"type":"Feature","geometry":{"type":"Point","coordinates":[-3.706034091460556,40.407836142078146]},"properties":{"licencia_urbana":true,"anio_dataset":2018,"fecha_concesion":"19/02/2018","tipo_expediente":"OC Obras transformación locales en viviendas","uso":"Residencial","distrito":"CENTRO","direccion":"CALLE PEÑA DE FRANCIA 000005","procedimiento":"Procedimiento Ordinario Común"}},{"type":"Feature","geometry":{"type":"Point","coordinates":[-3.695676728082502,40.4110181298831]},"properties":{"licencia_urbana":true,"anio_dataset":2018,"fecha_concesion":"23/10/2018","tipo_expediente":"REESTRUCTURACIÓN PUNTUAL","uso":"Residencial","distrito":"CENTRO","direccion":"CALLE FUCAR 000022","procedimiento":"Procedimiento Ordinario Abreviado"}},{"type":"Feature","geometry":{"type":"Point","coordinates":[-3.7059981612115562,40.40952934294607]},"properties":{"licencia_urbana":true,"anio_dataset":2018,"fecha_concesion":"06/07/2018","tipo_expediente":"OBRAS DE REESTRUCTURACIÓN PUNTUAL","uso":"Residencial","distrito":"CENTRO","direccion":"CALLE EMBAJADORES 000020","procedimiento":"Procedimiento Ordinario Común"}},{"type":"Feature","geometry":{"type":"Point","coordinates":[-3.6994073538892414,40.4233698139139]},"properties":{"licencia_urbana":true,"anio_dataset":2018,"fecha_concesion":"24/01/2018","tipo_expediente":"OBRAS DE CONSOLIDACIÓN","uso":"Residencial","distrito":"CENTRO","direccion":"CALLE HERNAN CORTES 000019","procedimiento":"Procedimiento Ordinario Común"}},{"type":"Feature","geometry":{"type":"Point","coordinates":[-3.711822908684478,40.41248436339712]},"properties":{"licencia_urbana":true,"anio_dataset":2018,"fecha_concesion":"20/02/2018","tipo_expediente":"OBRAS DE ACONDICIONAMIENTO PUNTUAL DE EDIFICIO CATALOGADO","uso":"Residencial","distrito":"CENTRO","direccion":"COSTANILLA SAN ANDRES 000016","procedimiento":"Procedimiento Ordinario Común"}},{"type":"Feature","geometry":{"type":"Point","coordinates":[-3.712337085345367,40.41529562207032]},"properties":{"licencia_urbana":true,"anio_dataset":2018,"fecha_concesion":"19/04/2018","tipo_expediente":"OC Obras edif. para incr. nº viviendas","uso":"Residencial","distrito":"CENTRO","direccion":"CALLE MAYOR 000084","procedimiento":"Procedimiento Ordinario Abreviado"}},{"type":"Feature","geometry":{"type":"Point","coordinates":[-3.699042090672168,40.40900205598028]},"properties":{"licencia_urbana":true,"anio_dataset":2018,"fecha_concesion":"04/07/2018","tipo_expediente":"OBRAS DE REESTRUCTURACIÓN PUNTUAL","uso":"Residencial","distrito":"CENTRO","direccion":"CALLE SALITRE 000031","procedimiento":"Procedimiento Ordinario Común"}},{"type":"Feature","geometry":{"type":"Point","coordinates":[-3.7021025246651935,40.407250530140246]},"properties":{"licencia_urbana":true,"anio_dataset":2018,"fecha_concesion":"18/09/2018","tipo_expediente":"REESTRUCTURACIÓN PUNTUAL","uso":"Residencial","distrito":"CENTRO","direccion":"CALLE PROVISIONES 000011","procedimiento":"Procedimiento Ordinario Abreviado"}},{"type":"Feature","geometry":{"type":"Point","coordinates":[-3.7043416667948033,40.417971733620696]},"properties":{"licencia_urbana":true,"anio_dataset":2018,"fecha_concesion":"03/04/2018","tipo_expediente":"OC Obras transformación locales en viviendas","uso":"Residencial","distrito":"CENTRO","direccion":"CALLE GALDO 000003","procedimiento":"Procedimiento Ordinario Común"}},{"type":"Feature","geometry":{"type":"Point","coordinates":[-3.708969592002068,40.423747517715555]},"properties":{"licencia_urbana":true,"anio_dataset":2018,"fecha_concesion":"23/03/2018","tipo_expediente":"OBRAS DE RESTAURACIÓN","uso":"Residencial","distrito":"CENTRO","direccion":"CALLE ALAMO 000004","procedimiento":"Procedimiento Ordinario Común"}},{"type":"Feature","geometry":{"type":"Point","coordinates":[-3.70514378424418,40.423526050049134]},"properties":{"licencia_urbana":true,"anio_dataset":2018,"fecha_concesion":"08/03/2018","tipo_expediente":"REESTRUCTURACIÓN PUNTUAL","uso":"Residencial","distrito":"CENTRO","direccion":"CALLE PEZ 000013","procedimiento":"Procedimiento Ordinario Abreviado"}},{"type":"Feature","geometry":{"type":"Point","coordinates":[-3.712254544571235,40.42612237652584]},"properties":{"licencia_urbana":true,"anio_dataset":2018,"fecha_concesion":"09/10/2018","tipo_expediente":"OBRAS DE CONSERVACIÓN","uso":"Residencial","distrito":"CENTRO","direccion":"CALLE DUQUE DE LIRIA 000004","procedimiento":"Procedimiento Ordinario Abreviado"}},{"type":"Feature","geometry":{"type":"Point","coordinates":[-3.704979880543977,40.422968129266366]},"properties":{"licencia_urbana":true,"anio_dataset":2018,"fecha_concesion":"09/10/2018","tipo_expediente":"OC Obras transformación locales en viviendas","uso":"Residencial","distrito":"CENTRO","direccion":"CALLE MADERA 000017","procedimiento":"Procedimiento Ordinario Común"}},{"type":"Feature","geometry":{"type":"Point","coordinates":[-3.7077249672214934,40.414892322842356]},"properties":{"licencia_urbana":true,"anio_dataset":2018,"fecha_concesion":"22/01/2018","tipo_expediente":"OBRAS DE CONSOLIDACIÓN","uso":"Residencial","distrito":"CENTRO","direccion":"CALLE TOLEDO 000002","procedimiento":"Procedimiento Ordinario Común"}},{"type":"Feature","geometry":{"type":"Point","coordinates":[-3.6962213542573292,40.42417904622325]},"properties":{"licencia_urbana":true,"anio_dataset":2018,"fecha_concesion":"10/08/2018","tipo_expediente":"OBRAS DE REESTRUCTURACIÓN PUNTUAL","uso":"Residencial","distrito":"CENTRO","direccion":"CALLE BELEN 000012","procedimiento":"Procedimiento Ordinario Común"}},{"type":"Feature","geometry":{"type":"Point","coordinates":[-3.707985116431756,40.41477036927799]},"properties":{"licencia_urbana":true,"anio_dataset":2018,"fecha_concesion":"01/02/2018","tipo_expediente":"OBRAS DE CONSOLIDACIÓN","uso":"Residencial","distrito":"CENTRO","direccion":"CALLE CUCHILLEROS 000003","procedimiento":"Procedimiento Ordinario Común"}},{"type":"Feature","geometry":{"type":"Point","coordinates":[-3.7031216205211157,40.42687440968887]},"properties":{"licencia_urbana":true,"anio_dataset":2018,"fecha_concesion":"19/11/2018","tipo_expediente":"OBRAS DE REESTRUCTURACIÓN PUNTUAL","uso":"Residencial","distrito":"CENTRO","direccion":"CALLE VELARDE 000020","procedimiento":"Procedimiento Ordinario Común"}},{"type":"Feature","geometry":{"type":"Point","coordinates":[-3.7043512912171788,40.415051664073026]},"properties":{"licencia_urbana":true,"anio_dataset":2018,"fecha_concesion":"02/02/2018","tipo_expediente":"OC Obras edif. para incr. nº viviendas","uso":"Residencial","distrito":"CENTRO","direccion":"CALLE PAZ 000008","procedimiento":"Procedimiento Ordinario Abreviado"}},{"type":"Feature","geometry":{"type":"Point","coordinates":[-3.704033133635521,40.4093485312441]},"properties":{"licencia_urbana":true,"anio_dataset":2018,"fecha_concesion":"01/02/2018","tipo_expediente":"OBRAS DE REESTRUCTURACIÓN PUNTUAL","uso":"Residencial","distrito":"CENTRO","direccion":"CALLE MESON DE PAREDES 000050","procedimiento":"Procedimiento Ordinario Común"}},{"type":"Feature","geometry":{"type":"Point","coordinates":[-3.7050700453900753,40.4280808337775]},"properties":{"licencia_urbana":true,"anio_dataset":2018,"fecha_concesion":"18/09/2018","tipo_expediente":"OBRAS DE REESTRUCTURACIÓN PUNTUAL","uso":"Residencial","distrito":"CENTRO","direccion":"CALLE MONTELEON 000005","procedimiento":"Procedimiento Ordinario Común"}},{"type":"Feature","geometry":{"type":"Point","coordinates":[-3.709799753520729,40.422495123595624]},"properties":{"licencia_urbana":true,"anio_dataset":2018,"fecha_concesion":"14/03/2018","tipo_expediente":"OC Obras transformación locales en viviendas","uso":"Residencial","distrito":"CENTRO","direccion":"CALLE GRAN VIA 000063","procedimiento":"Procedimiento Ordinario Común"}},{"type":"Feature","geometry":{"type":"Point","coordinates":[-3.7080936229058974,40.416306106981494]},"properties":{"licencia_urbana":true,"anio_dataset":2018,"fecha_concesion":"12/11/2018","tipo_expediente":"OBRAS DE REESTRUCTURACIÓN PUNTUAL","uso":"Residencial","distrito":"CENTRO","direccion":"CALLE SAN FELIPE NERI 000002","procedimiento":"Procedimiento Ordinario Común"}},{"type":"Feature","geometry":{"type":"Point","coordinates":[-3.701798021714212,40.41112221826523]},"properties":{"licencia_urbana":true,"anio_dataset":2018,"fecha_concesion":"01/02/2018","tipo_expediente":"OBRAS DE REESTRUCTURACIÓN PUNTUAL","uso":"Residencial","distrito":"CENTRO","direccion":"CALLE OLIVAR 000016","procedimiento":"Procedimiento Ordinario Común"}},{"type":"Feature","geometry":{"type":"Point","coordinates":[-3.709026747873344,40.40782395514553]},"properties":{"licencia_urbana":true,"anio_dataset":2018,"fecha_concesion":"24/01/2018","tipo_expediente":"OBRAS DE REESTRUCTURACIÓN PUNTUAL","uso":"Residencial","distrito":"CENTRO","direccion":"CALLEJON MELLIZO 000007","procedimiento":"Procedimiento Ordinario Común"}},{"type":"Feature","geometry":{"type":"Point","coordinates":[-3.710644937608965,40.41887577723908]},"properties":{"licencia_urbana":true,"anio_dataset":2018,"fecha_concesion":"19/11/2018","tipo_expediente":"REESTRUCTURACIÓN PUNTUAL","uso":"Residencial","distrito":"CENTRO","direccion":"CALLE ARRIETA 000005","procedimiento":"Procedimiento Ordinario Abreviado"}},{"type":"Feature","geometry":{"type":"Point","coordinates":[-3.7028298995399487,40.41661777543969]},"properties":{"licencia_urbana":true,"anio_dataset":2018,"fecha_concesion":"19/04/2018","tipo_expediente":"OC Obras transformación locales en viviendas","uso":"Residencial","distrito":"CENTRO","direccion":"PLAZA PUERTA DEL SOL 000005","procedimiento":"Procedimiento Ordinario Común"}},{"type":"Feature","geometry":{"type":"Point","coordinates":[-3.696969134436072,40.42196831807364]},"properties":{"licencia_urbana":true,"anio_dataset":2018,"fecha_concesion":"03/04/2018","tipo_expediente":"OBRAS DE REESTRUCTURACIÓN PUNTUAL","uso":"Residencial","distrito":"CENTRO","direccion":"CALLE AUGUSTO FIGUEROA 000028","procedimiento":"Procedimiento Ordinario Común"}},{"type":"Feature","geometry":{"type":"Point","coordinates":[-3.6933885131981334,40.42196291123396]},"properties":{"licencia_urbana":true,"anio_dataset":2018,"fecha_concesion":"28/05/2018","tipo_expediente":"OBRAS DE ACONDICIONAMIENTO PUNTUAL","uso":"Residencial","distrito":"CENTRO","direccion":"CALLE PRIM 000015","procedimiento":"Procedimiento Ordinario Abreviado"}},{"type":"Feature","geometry":{"type":"Point","coordinates":[-3.710817146003136,40.41769939951749]},"properties":{"licencia_urbana":true,"anio_dataset":2018,"fecha_concesion":"19/02/2018","tipo_expediente":"OBRAS DE REESTRUCTURACIÓN PUNTUAL","uso":"Residencial","distrito":"CENTRO","direccion":"CALLE VERGARA 000004","procedimiento":"Procedimiento Ordinario Común"}},{"type":"Feature","geometry":{"type":"Point","coordinates":[-3.7108251079769463,40.417503944510784]},"properties":{"licencia_urbana":true,"anio_dataset":2018,"fecha_concesion":"12/11/2018","tipo_expediente":"OBRAS DE REESTRUCTURACIÓN PUNTUAL","uso":"Residencial","distrito":"CENTRO","direccion":"CALLE SANTA CLARA 000010","procedimiento":"Procedimiento Ordinario Común"}},{"type":"Feature","geometry":{"type":"Point","coordinates":[-3.707942549655985,40.42621570853804]},"properties":{"licencia_urbana":true,"anio_dataset":2018,"fecha_concesion":"19/11/2018","tipo_expediente":"OBRAS DE ACONDICIONAMIENTO PUNTUAL","uso":"Residencial","distrito":"CENTRO","direccion":"CALLE SAN VICENTE FERRER 000072","procedimiento":"Procedimiento Ordinario Abreviado"}},{"type":"Feature","geometry":{"type":"Point","coordinates":[-3.710013328415622,40.41926398331601]},"properties":{"licencia_urbana":true,"anio_dataset":2018,"fecha_concesion":"27/02/2018","tipo_expediente":"OBRAS DE ACONDICIONAMIENTO PUNTUAL DE EDIFICIO CATALOGADO","uso":"Residencial","distrito":"CENTRO","direccion":"CUESTA SANTO DOMINGO 000003","procedimiento":"Procedimiento Ordinario Común"}},{"type":"Feature","geometry":{"type":"Point","coordinates":[-3.711822908684478,40.41248436339712]},"properties":{"licencia_urbana":true,"anio_dataset":2018,"fecha_concesion":"01/02/2018","tipo_expediente":"OBRAS DE REESTRUCTURACIÓN PUNTUAL","uso":"Residencial","distrito":"CENTRO","direccion":"COSTANILLA SAN ANDRES 000016","procedimiento":"Procedimiento Ordinario Común"}},{"type":"Feature","geometry":{"type":"Point","coordinates":[-3.713050184183046,40.41329734486848]},"properties":{"licencia_urbana":true,"anio_dataset":2018,"fecha_concesion":"19/02/2018","tipo_expediente":"OBRAS DE CONSOLIDACIÓN","uso":"Residencial","distrito":"CENTRO","direccion":"CUESTA CAÑOS VIEJOS 000001","procedimiento":"Procedimiento Ordinario Común"}},{"type":"Feature","geometry":{"type":"Point","coordinates":[-3.7063340506745197,40.42652536745146]},"properties":{"licencia_urbana":true,"anio_dataset":2018,"fecha_concesion":"08/03/2018","tipo_expediente":"OBRAS DE CONSOLIDACIÓN","uso":"Residencial","distrito":"CENTRO","direccion":"CALLE PALMA 000053","procedimiento":"Procedimiento Ordinario Común"}},{"type":"Feature","geometry":{"type":"Point","coordinates":[-3.695045065469927,40.411116073433014]},"properties":{"licencia_urbana":true,"anio_dataset":2018,"fecha_concesion":"02/03/2018","tipo_expediente":"OBRAS DE ACONDICIONAMIENTO PUNTUAL","uso":"Residencial","distrito":"CENTRO","direccion":"CALLE ALMADEN 000008","procedimiento":"Procedimiento Ordinario Abreviado"}},{"type":"Feature","geometry":{"type":"Point","coordinates":[-3.6944077567512004,40.419401289740186]},"properties":{"licencia_urbana":true,"anio_dataset":2018,"fecha_concesion":"09/10/2018","tipo_expediente":"OBRAS EN EXTERIORES","uso":"Dotacional","distrito":"CENTRO","direccion":"CALLE ALCALA 000051","procedimiento":"Procedimiento Ordinario Común"}},{"type":"Feature","geometry":{"type":"Point","coordinates":[-3.7066675920982957,40.411073278687994]},"properties":{"licencia_urbana":true,"anio_dataset":2018,"fecha_concesion":"12/11/2018","tipo_expediente":"OBRAS DE CONSERVACIÓN","uso":"Residencial","distrito":"CENTRO","direccion":"CALLE JUANELO 000023","procedimiento":"Procedimiento Ordinario Común"}},{"type":"Feature","geometry":{"type":"Point","coordinates":[-3.7066675920982957,40.411073278687994]},"properties":{"licencia_urbana":true,"anio_dataset":2018,"fecha_concesion":"12/11/2018","tipo_expediente":"OBRAS DE CONSERVACIÓN","uso":"Residencial","distrito":"CENTRO","direccion":"CALLE JUANELO 000023","procedimiento":"Procedimiento Ordinario Común"}},{"type":"Feature","geometry":{"type":"Point","coordinates":[-3.7087346585205085,40.4126727054532]},"properties":{"licencia_urbana":true,"anio_dataset":2018,"fecha_concesion":"10/12/2018","tipo_expediente":"REESTRUCTURACIÓN PUNTUAL","uso":"Residencial","distrito":"CENTRO","direccion":"CALLE CAVA BAJA 000015","procedimiento":"Procedimiento Ordinario Abreviado"}},{"type":"Feature","geometry":{"type":"Point","coordinates":[-3.6950304126991322,40.422589630837116]},"properties":{"licencia_urbana":true,"anio_dataset":2018,"fecha_concesion":"22/10/2018","tipo_expediente":"REESTRUCTURACIÓN PUNTUAL","uso":"Residencial","distrito":"CENTRO","direccion":"CALLE ALMIRANTE 000005","procedimiento":"Procedimiento Ordinario Abreviado"}},{"type":"Feature","geometry":{"type":"Point","coordinates":[-3.7122972120196627,40.41961768379111]},"properties":{"licencia_urbana":true,"anio_dataset":2018,"fecha_concesion":"11/10/2018","tipo_expediente":"REESTRUCTURACIÓN PUNTUAL","uso":"Residencial","distrito":"CENTRO","direccion":"CALLE SAN QUINTIN 000006","procedimiento":"Procedimiento Ordinario Abreviado"}},{"type":"Feature","geometry":{"type":"Point","coordinates":[-3.7056004475286386,40.416124141607156]},"properties":{"licencia_urbana":true,"anio_dataset":2018,"fecha_concesion":"19/11/2018","tipo_expediente":"OBRAS DE ACONDICIONAMIENTO PUNTUAL DE EDIFICIO CATALOGADO","uso":"Residencial","distrito":"CENTRO","direccion":"CALLE POSTAS 000008","procedimiento":"Procedimiento Ordinario Común"}},{"type":"Feature","geometry":{"type":"Point","coordinates":[-3.7040888217596004,40.422900225794514]},"properties":{"licencia_urbana":true,"anio_dataset":2018,"fecha_concesion":"18/09/2018","tipo_expediente":"OBRAS DE CONSERVACIÓN","uso":"Residencial","distrito":"CENTRO","direccion":"CALLE PEZ 000006","procedimiento":"Procedimiento Ordinario Común"}},{"type":"Feature","geometry":{"type":"Point","coordinates":[-3.7018872145269155,40.42581893531686]},"properties":{"licencia_urbana":true,"anio_dataset":2018,"fecha_concesion":"09/10/2018","tipo_expediente":"OBRAS DE CONSOLIDACIÓN","uso":"Residencial","distrito":"CENTRO","direccion":"CALLE CORREDERA ALTA DE SAN PABLO 000021","procedimiento":"Procedimiento Ordinario Común"}},{"type":"Feature","geometry":{"type":"Point","coordinates":[-3.7017950729414832,40.4092840289504]},"properties":{"licencia_urbana":true,"anio_dataset":2018,"fecha_concesion":"31/01/2018","tipo_expediente":"OBRAS DE CONSOLIDACIÓN","uso":"Residencial","distrito":"CENTRO","direccion":"CALLE LAVAPIES 000051","procedimiento":"Procedimiento Ordinario Común"}},{"type":"Feature","geometry":{"type":"Point","coordinates":[-3.707519824326756,40.424135769341994]},"properties":{"licencia_urbana":true,"anio_dataset":2018,"fecha_concesion":"19/04/2018","tipo_expediente":"OBRAS DE CONSERVACIÓN","uso":"Dotacional","distrito":"CENTRO","direccion":"CALLE SAN BERNARDO 000045","procedimiento":"Procedimiento Ordinario Común"}},{"type":"Feature","geometry":{"type":"Point","coordinates":[-3.703236299407665,40.42531001513409]},"properties":{"licencia_urbana":true,"anio_dataset":2018,"fecha_concesion":"19/04/2018","tipo_expediente":"OBRAS DE CONSOLIDACIÓN","uso":"Residencial","distrito":"CENTRO","direccion":"CALLE ESPIRITU SANTO 000018","procedimiento":"Procedimiento Ordinario Común"}},{"type":"Feature","geometry":{"type":"Point","coordinates":[-3.6986943693106635,40.425040705924864]},"properties":{"licencia_urbana":true,"anio_dataset":2018,"fecha_concesion":"06/07/2018","tipo_expediente":"OBRAS DE CONSERVACIÓN","uso":"Residencial","distrito":"CENTRO","direccion":"CALLE SAN LORENZO 000011","procedimiento":"Procedimiento Ordinario Abreviado"}},{"type":"Feature","geometry":{"type":"Point","coordinates":[-3.6986943693106635,40.425040705924864]},"properties":{"licencia_urbana":true,"anio_dataset":2018,"fecha_concesion":"06/07/2018","tipo_expediente":"OBRAS DE CONSERVACIÓN","uso":"Residencial","distrito":"CENTRO","direccion":"CALLE SAN LORENZO 000011","procedimiento":"Procedimiento Ordinario Abreviado"}},{"type":"Feature","geometry":{"type":"Point","coordinates":[-3.6999861614414864,40.423984961208085]},"properties":{"licencia_urbana":true,"anio_dataset":2018,"fecha_concesion":"27/09/2018","tipo_expediente":"OBRAS EXTERIORES","uso":"Residencial","distrito":"CENTRO","direccion":"CALLE FARMACIA 000007","procedimiento":"Procedimiento Ordinario Abreviado"}},{"type":"Feature","geometry":{"type":"Point","coordinates":[-3.701716350554645,40.40902360452339]},"properties":{"licencia_urbana":true,"anio_dataset":2018,"fecha_concesion":"10/12/2018","tipo_expediente":"REESTRUCTURACIÓN PUNTUAL","uso":"Residencial","distrito":"CENTRO","direccion":"CALLE LAVAPIES 000056","procedimiento":"Procedimiento Ordinario Abreviado"}},{"type":"Feature","geometry":{"type":"Point","coordinates":[-3.710013328415622,40.41926398331601]},"properties":{"licencia_urbana":true,"anio_dataset":2018,"fecha_concesion":"27/02/2018","tipo_expediente":"OBRAS DE ACONDICIONAMIENTO PUNTUAL DE EDIFICIO CATALOGADO","uso":"Residencial","distrito":"CENTRO","direccion":"CUESTA SANTO DOMINGO 000003","procedimiento":"Procedimiento Ordinario Común"}},{"type":"Feature","geometry":{"type":"Point","coordinates":[-3.710423493093951,40.408916648145464]},"properties":{"licencia_urbana":true,"anio_dataset":2018,"fecha_concesion":"23/10/2018","tipo_expediente":"OBRAS DE CONSERVACIÓN","uso":"Residencial","distrito":"CENTRO","direccion":"CALLE TOLEDO 000082","procedimiento":"Procedimiento Ordinario Común"}},{"type":"Feature","geometry":{"type":"Point","coordinates":[-3.696097472957304,40.41253803731853]},"properties":{"licencia_urbana":true,"anio_dataset":2018,"fecha_concesion":"23/10/2018","tipo_expediente":"REESTRUCTURACIÓN PUNTUAL","uso":"Residencial","distrito":"CENTRO","direccion":"CALLE MORATIN 000033","procedimiento":"Procedimiento Ordinario Abreviado"}},{"type":"Feature","geometry":{"type":"Point","coordinates":[-3.7013410422246342,40.42107385891973]},"properties":{"licencia_urbana":true,"anio_dataset":2018,"fecha_concesion":"23/10/2018","tipo_expediente":"OBRAS DE CONSOLIDACIÓN","uso":"Residencial","distrito":"CENTRO","direccion":"CALLE FUENCARRAL 000015","procedimiento":"Procedimiento Ordinario Común"}},{"type":"Feature","geometry":{"type":"Point","coordinates":[-3.698580205771875,40.41360595088519]},"properties":{"licencia_urbana":true,"anio_dataset":2018,"fecha_concesion":"10/08/2018","tipo_expediente":"OBRAS DE CONSERVACIÓN","uso":"Residencial","distrito":"CENTRO","direccion":"CALLE HUERTAS 000033","procedimiento":"Procedimiento Ordinario Abreviado"}},{"type":"Feature","geometry":{"type":"Point","coordinates":[-3.711938408934717,40.410034722624566]},"properties":{"licencia_urbana":true,"anio_dataset":2018,"fecha_concesion":"02/03/2018","tipo_expediente":"OBRAS DE REESTRUCTURACIÓN PUNTUAL","uso":"Residencial","distrito":"CENTRO","direccion":"CALLE AGUILA 000001","procedimiento":"Procedimiento Ordinario Común"}},{"type":"Feature","geometry":{"type":"Point","coordinates":[-3.711169172679205,40.42542878660621]},"properties":{"licencia_urbana":true,"anio_dataset":2018,"fecha_concesion":"12/11/2018","tipo_expediente":"REESTRUCTURACIÓN PUNTUAL","uso":"Residencial","distrito":"CENTRO","direccion":"CALLE SAN BERNARDINO 000015","procedimiento":"Procedimiento Ordinario Abreviado"}},{"type":"Feature","geometry":{"type":"Point","coordinates":[-3.705552240258673,40.420885713040185]},"properties":{"licencia_urbana":true,"anio_dataset":2018,"fecha_concesion":"23/10/2018","tipo_expediente":"OBRAS EXTERIORES","uso":"Residencial","distrito":"CENTRO","direccion":"CALLE MIGUEL MOYA 000006","procedimiento":"Procedimiento Ordinario Abreviado"}},{"type":"Feature","geometry":{"type":"Point","coordinates":[-3.6959922625261807,40.416637157017014]},"properties":{"licencia_urbana":true,"anio_dataset":2018,"fecha_concesion":"23/10/2018","tipo_expediente":"REESTRUCTURACIÓN PUNTUAL","uso":"Residencial","distrito":"CENTRO","direccion":"CALLE FERNANFLOR 000008","procedimiento":"Procedimiento Ordinario Abreviado"}},{"type":"Feature","geometry":{"type":"Point","coordinates":[-3.7126780826719936,40.419641733102395]},"properties":{"licencia_urbana":true,"anio_dataset":2018,"fecha_concesion":"02/03/2018","tipo_expediente":"OBRAS DE CONSERVACIÓN","uso":"Residencial","distrito":"CENTRO","direccion":"CALLE SAN QUINTIN 000010","procedimiento":"Procedimiento Ordinario Común"}},{"type":"Feature","geometry":{"type":"Point","coordinates":[-3.698275629437993,40.409613627513465]},"properties":{"licencia_urbana":true,"anio_dataset":2018,"fecha_concesion":"24/01/2018","tipo_expediente":"OBRAS DE REESTRUCTURACIÓN PUNTUAL","uso":"Residencial","distrito":"CENTRO","direccion":"CALLE SALITRE 000015","procedimiento":"Procedimiento Ordinario Común"}},{"type":"Feature","geometry":{"type":"Point","coordinates":[-3.693478434799525,40.41234080185618]},"properties":{"licencia_urbana":true,"anio_dataset":2018,"fecha_concesion":"23/10/2018","tipo_expediente":"OBRAS DE CONSERVACIÓN","uso":"Residencial","distrito":"CENTRO","direccion":"PASEO PRADO 000024","procedimiento":"Procedimiento Ordinario Común"}},{"type":"Feature","geometry":{"type":"Point","coordinates":[-3.709585578848886,40.415966958674026]},"properties":{"licencia_urbana":true,"anio_dataset":2018,"fecha_concesion":"17/10/2018","tipo_expediente":"REESTRUCTURACIÓN PUNTUAL","uso":"Residencial","distrito":"CENTRO","direccion":"CALLE MILANESES 000003","procedimiento":"Procedimiento Ordinario Abreviado"}},{"type":"Feature","geometry":{"type":"Point","coordinates":[-3.696807808318164,40.41692350710302]},"properties":{"licencia_urbana":true,"anio_dataset":2018,"fecha_concesion":"02/03/2018","tipo_expediente":"OBRAS DE REESTRUCTURACIÓN PUNTUAL","uso":"Residencial","distrito":"CENTRO","direccion":"CALLE JOVELLANOS 000006","procedimiento":"Procedimiento Ordinario Común"}},{"type":"Feature","geometry":{"type":"Point","coordinates":[-3.704496197520902,40.425158200110275]},"properties":{"licencia_urbana":true,"anio_dataset":2018,"fecha_concesion":"19/04/2018","tipo_expediente":"OBRAS DE CONSOLIDACIÓN","uso":"Residencial","distrito":"CENTRO","direccion":"CALLE TESORO 000006","procedimiento":"Procedimiento Ordinario Común"}},{"type":"Feature","geometry":{"type":"Point","coordinates":[-3.704496197520902,40.425158200110275]},"properties":{"licencia_urbana":true,"anio_dataset":2018,"fecha_concesion":"19/04/2018","tipo_expediente":"OBRAS DE CONSOLIDACIÓN","uso":"Residencial","distrito":"CENTRO","direccion":"CALLE TESORO 000006","procedimiento":"Procedimiento Ordinario Común"}},{"type":"Feature","geometry":{"type":"Point","coordinates":[-3.7039663489599093,40.42398619960919]},"properties":{"licencia_urbana":true,"anio_dataset":2018,"fecha_concesion":"12/11/2018","tipo_expediente":"OBRAS DE REESTRUCTURACIÓN PUNTUAL","uso":"Residencial","distrito":"CENTRO","direccion":"CALLE MADERA 000031","procedimiento":"Procedimiento Ordinario Común"}},{"type":"Feature","geometry":{"type":"Point","coordinates":[-3.7013977602681742,40.42015639484445]},"properties":{"licencia_urbana":true,"anio_dataset":2018,"fecha_concesion":"28/06/2018","tipo_expediente":"OBRAS DE CONSERVACIÓN","uso":"Residencial","distrito":"CENTRO","direccion":"CALLE GRAN VIA 000026","procedimiento":"Procedimiento Ordinario Común"}},{"type":"Feature","geometry":{"type":"Point","coordinates":[-3.700409179455509,40.40616728078256]},"properties":{"licencia_urbana":true,"anio_dataset":2018,"fecha_concesion":"26/03/2018","tipo_expediente":"OBRAS DE CONSOLIDACIÓN","uso":"Residencial","distrito":"CENTRO","direccion":"CALLE AMPARO 000098","procedimiento":"Procedimiento Ordinario Común"}},{"type":"Feature","geometry":{"type":"Point","coordinates":[-3.7032692609236384,40.423607828535815]},"properties":{"licencia_urbana":true,"anio_dataset":2018,"fecha_concesion":"09/10/2018","tipo_expediente":"OBRAS DE CONSERVACIÓN","uso":"Residencial","distrito":"CENTRO","direccion":"CALLE MOLINO DE VIENTO 000012","procedimiento":"Procedimiento Ordinario Abreviado"}},{"type":"Feature","geometry":{"type":"Point","coordinates":[-3.6996096976523747,40.40961781522521]},"properties":{"licencia_urbana":true,"anio_dataset":2018,"fecha_concesion":"02/03/2018","tipo_expediente":"OBRAS DE CONSOLIDACIÓN","uso":"Residencial","distrito":"CENTRO","direccion":"CALLE BUENAVISTA 000032","procedimiento":"Procedimiento Ordinario Común"}},{"type":"Feature","geometry":{"type":"Point","coordinates":[-3.707583237141143,40.41492084808828]},"properties":{"licencia_urbana":true,"anio_dataset":2018,"fecha_concesion":"23/10/2018","tipo_expediente":"OBRAS DE ACONDICIONAMIENTO PUNTUAL","uso":"Residencial","distrito":"CENTRO","direccion":"CALLE TOLEDO 000003","procedimiento":"Procedimiento Ordinario Abreviado"}},{"type":"Feature","geometry":{"type":"Point","coordinates":[-3.7063340506745197,40.42652536745146]},"properties":{"licencia_urbana":true,"anio_dataset":2018,"fecha_concesion":"08/03/2018","tipo_expediente":"OBRAS DE CONSOLIDACIÓN","uso":"Residencial","distrito":"CENTRO","direccion":"CALLE PALMA 000053","procedimiento":"Procedimiento Ordinario Común"}},{"type":"Feature","geometry":{"type":"Point","coordinates":[-3.705528599544958,40.40698814215826]},"properties":{"licencia_urbana":true,"anio_dataset":2018,"fecha_concesion":"17/07/2018","tipo_expediente":"OBRAS DE REESTRUCTURACIÓN PUNTUAL","uso":"Residencial","distrito":"CENTRO","direccion":"CALLE VENTORRILLO 000010","procedimiento":"Procedimiento Ordinario Común"}},{"type":"Feature","geometry":{"type":"Point","coordinates":[-3.710494305817054,40.416400478557364]},"properties":{"licencia_urbana":true,"anio_dataset":2018,"fecha_concesion":"08/03/2018","tipo_expediente":"OBRAS DE REESTRUCTURACIÓN PUNTUAL","uso":"Residencial","distrito":"CENTRO","direccion":"CALLE SANTIAGO 000009","procedimiento":"Procedimiento Ordinario Común"}},{"type":"Feature","geometry":{"type":"Point","coordinates":[-3.7015437410239955,40.42871634117503]},"properties":{"licencia_urbana":true,"anio_dataset":2018,"fecha_concesion":"01/02/2018","tipo_expediente":"OBRAS DE REESTRUCTURACIÓN PUNTUAL","uso":"Residencial","distrito":"CENTRO","direccion":"CALLE SAGASTA 000004","procedimiento":"Procedimiento Ordinario Común"}},{"type":"Feature","geometry":{"type":"Point","coordinates":[-3.704984532491295,40.426970272148694]},"properties":{"licencia_urbana":true,"anio_dataset":2018,"fecha_concesion":"09/10/2018","tipo_expediente":"OBRAS EXTERIORES","uso":"Dotacional","distrito":"CENTRO","direccion":"CALLE DAOIZ 000003","procedimiento":"Procedimiento Ordinario Abreviado"}},{"type":"Feature","geometry":{"type":"Point","coordinates":[-3.706189651635721,40.40819627499273]},"properties":{"licencia_urbana":true,"anio_dataset":2018,"fecha_concesion":"04/07/2018","tipo_expediente":"OC Obras transformación locales en viviendas","uso":"Residencial","distrito":"CENTRO","direccion":"CALLE RODAS 000018","procedimiento":"Procedimiento Ordinario Común"}},{"type":"Feature","geometry":{"type":"Point","coordinates":[-3.7120934778596677,40.420552274813005]},"properties":{"licencia_urbana":true,"anio_dataset":2018,"fecha_concesion":"24/01/2018","tipo_expediente":"REESTRUCTURACIÓN PUNTUAL","uso":"Residencial","distrito":"CENTRO","direccion":"PLAZA MARINA ESPAÑOLA 000004","procedimiento":"Procedimiento Ordinario Abreviado"}},{"type":"Feature","geometry":{"type":"Point","coordinates":[-3.707753983744531,40.41607548304525]},"properties":{"licencia_urbana":true,"anio_dataset":2018,"fecha_concesion":"25/06/2018","tipo_expediente":"OBRAS DE REESTRUCTURACIÓN PUNTUAL","uso":"Residencial","distrito":"CENTRO","direccion":"CALLE MAYOR 000035","procedimiento":"Procedimiento Ordinario Común"}},{"type":"Feature","geometry":{"type":"Point","coordinates":[-3.7083201246457222,40.415268049022515]},"properties":{"licencia_urbana":true,"anio_dataset":2018,"fecha_concesion":"12/11/2018","tipo_expediente":"OBRAS DE CONSERVACIÓN","uso":"Residencial","distrito":"CENTRO","direccion":"CALLE CAVA DE SAN MIGUEL 000011","procedimiento":"Procedimiento Ordinario Común"}},{"type":"Feature","geometry":{"type":"Point","coordinates":[-3.6973978421539146,40.42299393406999]},"properties":{"licencia_urbana":true,"anio_dataset":2018,"fecha_concesion":"18/04/2018","tipo_expediente":"OBRAS DE CONSERVACIÓN","uso":"Residencial","distrito":"CENTRO","direccion":"CALLE GRAVINA 000011","procedimiento":"Procedimiento Ordinario Abreviado"}},{"type":"Feature","geometry":{"type":"Point","coordinates":[-3.70514378424418,40.423526050049134]},"properties":{"licencia_urbana":true,"anio_dataset":2018,"fecha_concesion":"23/10/2018","tipo_expediente":"OBRAS DE CONSOLIDACIÓN","uso":"Residencial","distrito":"CENTRO","direccion":"CALLE PEZ 000013","procedimiento":"Procedimiento Ordinario Común"}},{"type":"Feature","geometry":{"type":"Point","coordinates":[-3.706986086212636,40.40658311116]},"properties":{"licencia_urbana":true,"anio_dataset":2018,"fecha_concesion":"23/03/2018","tipo_expediente":"OBRAS DE CONSOLIDACIÓN","uso":"Residencial","distrito":"CENTRO","direccion":"CALLE RIBERA DE CURTIDORES 000037","procedimiento":"Procedimiento Ordinario Común"}},{"type":"Feature","geometry":{"type":"Point","coordinates":[-3.701069571318,40.409967713005344]},"properties":{"licencia_urbana":true,"anio_dataset":2018,"fecha_concesion":"02/08/2018","tipo_expediente":"OC Obras transformación locales en viviendas","uso":"Residencial","distrito":"CENTRO","direccion":"CALLE AVE MARIA 000040","procedimiento":"Procedimiento Ordinario Común"}},{"type":"Feature","geometry":{"type":"Point","coordinates":[-3.712751946912433,40.41993920654702]},"properties":{"licencia_urbana":true,"anio_dataset":2018,"fecha_concesion":"23/10/2018","tipo_expediente":"OBRAS DE CONSOLIDACIÓN","uso":"Residencial","distrito":"CENTRO","direccion":"CALLE BAILEN 000015","procedimiento":"Procedimiento Ordinario Común"}},{"type":"Feature","geometry":{"type":"Point","coordinates":[-3.707729745494813,40.42181619035448]},"properties":{"licencia_urbana":true,"anio_dataset":2018,"fecha_concesion":"12/11/2018","tipo_expediente":"OBRAS DE ACONDICIONAMIENTO PUNTUAL","uso":"Residencial","distrito":"CENTRO","direccion":"CALLE SAN BERNARDO 000008","procedimiento":"Procedimiento Ordinario Abreviado"}},{"type":"Feature","geometry":{"type":"Point","coordinates":[-3.7050700453900753,40.4280808337775]},"properties":{"licencia_urbana":true,"anio_dataset":2018,"fecha_concesion":"20/02/2018","tipo_expediente":"OBRAS DE CONSOLIDACIÓN","uso":"Residencial","distrito":"CENTRO","direccion":"CALLE MONTELEON 000005","procedimiento":"Procedimiento Ordinario Común"}},{"type":"Feature","geometry":{"type":"Point","coordinates":[-3.7064655821597032,40.41515308906612]},"properties":{"licencia_urbana":true,"anio_dataset":2018,"fecha_concesion":"19/11/2018","tipo_expediente":"OBRAS DE CONSOLIDACIÓN","uso":"Residencial","distrito":"CENTRO","direccion":"CALLE GERONA 000012","procedimiento":"Procedimiento Ordinario Común"}},{"type":"Feature","geometry":{"type":"Point","coordinates":[-3.7048077340878196,40.415667713736354]},"properties":{"licencia_urbana":true,"anio_dataset":2018,"fecha_concesion":"19/04/2018","tipo_expediente":"REESTRUCTURACIÓN PUNTUAL","uso":"Residencial","distrito":"CENTRO","direccion":"CALLE MARQUES VIUDO DE PONTEJOS 000005","procedimiento":"Procedimiento Ordinario Abreviado"}},{"type":"Feature","geometry":{"type":"Point","coordinates":[-3.6980411472747026,40.421548696098924]},"properties":{"licencia_urbana":true,"anio_dataset":2018,"fecha_concesion":"11/12/2018","tipo_expediente":"OC Obras edif. para incr. nº viviendas","uso":"Residencial","distrito":"CENTRO","direccion":"CALLE BARBIERI 000015","procedimiento":"Procedimiento Ordinario Abreviado"}},{"type":"Feature","geometry":{"type":"Point","coordinates":[-3.711169172679205,40.42542878660621]},"properties":{"licencia_urbana":true,"anio_dataset":2018,"fecha_concesion":"08/03/2018","tipo_expediente":"OBRAS DE REESTRUCTURACIÓN PUNTUAL","uso":"Residencial","distrito":"CENTRO","direccion":"CALLE SAN BERNARDINO 000015","procedimiento":"Procedimiento Ordinario Común"}},{"type":"Feature","geometry":{"type":"Point","coordinates":[-3.7029486454114764,40.40953251803491]},"properties":{"licencia_urbana":true,"anio_dataset":2018,"fecha_concesion":"06/07/2018","tipo_expediente":"OC Obras transformación locales en viviendas","uso":"Residencial","distrito":"CENTRO","direccion":"CALLE AMPARO 000041","procedimiento":"Procedimiento Ordinario Común"}},{"type":"Feature","geometry":{"type":"Point","coordinates":[-3.7126780826719936,40.419641733102395]},"properties":{"licencia_urbana":true,"anio_dataset":2018,"fecha_concesion":"02/03/2018","tipo_expediente":"OBRAS DE CONSERVACIÓN","uso":"Residencial","distrito":"CENTRO","direccion":"CALLE SAN QUINTIN 000010","procedimiento":"Procedimiento Ordinario Común"}},{"type":"Feature","geometry":{"type":"Point","coordinates":[-3.702646501564821,40.42614621570576]},"properties":{"licencia_urbana":true,"anio_dataset":2018,"fecha_concesion":"01/02/2018","tipo_expediente":"OBRAS DE REESTRUCTURACIÓN PUNTUAL","uso":"Residencial","distrito":"CENTRO","direccion":"CALLE PALMA 000013","procedimiento":"Procedimiento Ordinario Común"}},{"type":"Feature","geometry":{"type":"Point","coordinates":[-3.6955657064175185,40.41105267188041]},"properties":{"licencia_urbana":true,"anio_dataset":2018,"fecha_concesion":"24/01/2018","tipo_expediente":"OBRAS DE REESTRUCTURACIÓN PUNTUAL","uso":"Residencial","distrito":"CENTRO","direccion":"CALLE FUCAR 000017","procedimiento":"Procedimiento Ordinario Común"}},{"type":"Feature","geometry":{"type":"Point","coordinates":[-3.706365219226064,40.41532784709886]},"properties":{"licencia_urbana":true,"anio_dataset":2018,"fecha_concesion":"23/10/2018","tipo_expediente":"OBRAS DE REESTRUCTURACIÓN PUNTUAL","uso":"Residencial","distrito":"CENTRO","direccion":"CALLE ZARAGOZA 000009","procedimiento":"Procedimiento Ordinario Común"}},{"type":"Feature","geometry":{"type":"Point","coordinates":[-3.706608597066755,40.41019940093882]},"properties":{"licencia_urbana":true,"anio_dataset":2018,"fecha_concesion":"25/05/2018","tipo_expediente":"OBRAS DE CONSOLIDACIÓN","uso":"Residencial","distrito":"CENTRO","direccion":"CALLE EMBAJADORES 000010","procedimiento":"Procedimiento Ordinario Común"}},{"type":"Feature","geometry":{"type":"Point","coordinates":[-3.7077387477623622,40.40969401772404]},"properties":{"licencia_urbana":true,"anio_dataset":2018,"fecha_concesion":"10/12/2018","tipo_expediente":"OBRAS DE REESTRUCTURACIÓN PUNTUAL","uso":"Residencial","distrito":"CENTRO","direccion":"PLAZA GENERAL VARA DE REY 000014","procedimiento":"Procedimiento Ordinario Común"}},{"type":"Feature","geometry":{"type":"Point","coordinates":[-3.709303983769639,40.429365837386015]},"properties":{"licencia_urbana":true,"anio_dataset":2018,"fecha_concesion":"31/05/2018","tipo_expediente":"OBRAS DE CONSOLIDACIÓN","uso":"Residencial","distrito":"CENTRO","direccion":"CALLE CONDE DUQUE 000019","procedimiento":"Procedimiento Ordinario Común"}},{"type":"Feature","geometry":{"type":"Point","coordinates":[-3.701636063283498,40.410121754931644]},"properties":{"licencia_urbana":true,"anio_dataset":2018,"fecha_concesion":"01/02/2018","tipo_expediente":"OBRAS DE CONSOLIDACIÓN","uso":"Residencial","distrito":"CENTRO","direccion":"CALLE OLIVAR 000036","procedimiento":"Procedimiento Ordinario Común"}},{"type":"Feature","geometry":{"type":"Point","coordinates":[-3.7085352201586415,40.40835607004988]},"properties":{"licencia_urbana":true,"anio_dataset":2018,"fecha_concesion":"19/02/2018","tipo_expediente":"OBRAS DE REESTRUCTURACIÓN PUNTUAL","uso":"Residencial","distrito":"CENTRO","direccion":"CALLE CARLOS ARNICHES 000012","procedimiento":"Procedimiento Ordinario Común"}},{"type":"Feature","geometry":{"type":"Point","coordinates":[-3.7055509209888897,40.422429238952546]},"properties":{"licencia_urbana":true,"anio_dataset":2018,"fecha_concesion":"04/07/2018","tipo_expediente":"OBRAS DE CONSERVACIÓN","uso":"Residencial","distrito":"CENTRO","direccion":"CALLE MADERA 000003","procedimiento":"Procedimiento Ordinario Común"}},{"type":"Feature","geometry":{"type":"Point","coordinates":[-3.701199149262829,40.41566136715121]},"properties":{"licencia_urbana":true,"anio_dataset":2018,"fecha_concesion":"18/09/2018","tipo_expediente":"OBRAS DE CONSOLIDACIÓN","uso":"Residencial","distrito":"CENTRO","direccion":"CALLE NUÑEZ DE ARCE 000005","procedimiento":"Procedimiento Ordinario Común"}},{"type":"Feature","geometry":{"type":"Point","coordinates":[-3.707151005007898,40.41137275686979]},"properties":{"licencia_urbana":true,"anio_dataset":2018,"fecha_concesion":"31/01/2018","tipo_expediente":"OBRAS DE CONSOLIDACIÓN","uso":"Residencial","distrito":"CENTRO","direccion":"PLAZA CASCORRO 000001","procedimiento":"Procedimiento Ordinario Común"}},{"type":"Feature","geometry":{"type":"Point","coordinates":[-3.712751946912433,40.41993920654702]},"properties":{"licencia_urbana":true,"anio_dataset":2018,"fecha_concesion":"23/10/2018","tipo_expediente":"OBRAS DE CONSOLIDACIÓN","uso":"Residencial","distrito":"CENTRO","direccion":"CALLE BAILEN 000015","procedimiento":"Procedimiento Ordinario Común"}},{"type":"Feature","geometry":{"type":"Point","coordinates":[-3.712622218526428,40.4139897159044]},"properties":{"licencia_urbana":true,"anio_dataset":2018,"fecha_concesion":"01/02/2018","tipo_expediente":"OBRAS DE CONSERVACIÓN","uso":"Residencial","distrito":"CENTRO","direccion":"CALLE SEGOVIA 000024","procedimiento":"Procedimiento Ordinario Común"}},{"type":"Feature","geometry":{"type":"Point","coordinates":[-3.707652771728204,40.42113008304477]},"properties":{"licencia_urbana":true,"anio_dataset":2018,"fecha_concesion":"10/12/2018","tipo_expediente":"OBRAS DE CONSERVACIÓN","uso":"Residencial","distrito":"CENTRO","direccion":"CALLE GRAN VIA 000049","procedimiento":"Procedimiento Ordinario Común"}},{"type":"Feature","geometry":{"type":"Point","coordinates":[-3.7057170391381593,40.422273810231765]},"properties":{"licencia_urbana":true,"anio_dataset":2018,"fecha_concesion":"17/10/2018","tipo_expediente":"REESTRUCTURACIÓN PUNTUAL","uso":"Residencial","distrito":"CENTRO","direccion":"CALLE MADERA 000001","procedimiento":"Procedimiento Ordinario Abreviado"}},{"type":"Feature","geometry":{"type":"Point","coordinates":[-3.6952284612028627,40.4249835819184]},"properties":{"licencia_urbana":true,"anio_dataset":2018,"fecha_concesion":"23/10/2018","tipo_expediente":"OBRAS DE REESTRUCTURACIÓN PUNTUAL","uso":"Residencial","distrito":"CENTRO","direccion":"CALLE ARGENSOLA 000005","procedimiento":"Procedimiento Ordinario Común"}},{"type":"Feature","geometry":{"type":"Point","coordinates":[-3.6980735257366275,40.413835768957206]},"properties":{"licencia_urbana":true,"anio_dataset":2018,"fecha_concesion":"20/11/2018","tipo_expediente":"REESTRUCTURACIÓN PUNTUAL","uso":"Residencial","distrito":"CENTRO","direccion":"CALLE LOPE DE VEGA 000013","procedimiento":"Procedimiento Ordinario Abreviado"}},{"type":"Feature","geometry":{"type":"Point","coordinates":[-3.711009067861887,40.419168764615414]},"properties":{"licencia_urbana":true,"anio_dataset":2018,"fecha_concesion":"24/10/2018","tipo_expediente":"OBRAS DE CONSOLIDACIÓN","uso":"Residencial","distrito":"CENTRO","direccion":"CALLE ARRIETA 000013","procedimiento":"Procedimiento Ordinario Común"}},{"type":"Feature","geometry":{"type":"Point","coordinates":[-3.6947047100369312,40.425431145873404]},"properties":{"licencia_urbana":true,"anio_dataset":2018,"fecha_concesion":"19/11/2018","tipo_expediente":"OBRAS DE CONSOLIDACIÓN","uso":"Residencial","distrito":"CENTRO","direccion":"CALLE ARGENSOLA 000014","procedimiento":"Procedimiento Ordinario Común"}},{"type":"Feature","geometry":{"type":"Point","coordinates":[-3.712512593744188,40.419631221537315]},"properties":{"licencia_urbana":true,"anio_dataset":2018,"fecha_concesion":"19/11/2018","tipo_expediente":"OBRAS DE CONSOLIDACIÓN","uso":"Residencial","distrito":"CENTRO","direccion":"CALLE SAN QUINTIN 000008","procedimiento":"Procedimiento Ordinario Común"}},{"type":"Feature","geometry":{"type":"Point","coordinates":[-3.707036723983696,40.42205124207373]},"properties":{"licencia_urbana":true,"anio_dataset":2018,"fecha_concesion":"10/10/2018","tipo_expediente":"OBRAS DE RESTAURACIÓN","uso":"Residencial","distrito":"CENTRO","direccion":"CALLE MARQUES DE LEGANES 000005","procedimiento":"Procedimiento Ordinario Abreviado"}},{"type":"Feature","geometry":{"type":"Point","coordinates":[-3.7097309153641262,40.42021860306833]},"properties":{"licencia_urbana":true,"anio_dataset":2018,"fecha_concesion":"23/10/2018","tipo_expediente":"OBRAS DE CONSERVACIÓN","uso":"Residencial","distrito":"CENTRO","direccion":"CALLE FOMENTO 000005","procedimiento":"Procedimiento Ordinario Común"}},{"type":"Feature","geometry":{"type":"Point","coordinates":[-3.706770708598332,40.41066670057453]},"properties":{"licencia_urbana":true,"anio_dataset":2018,"fecha_concesion":"11/12/2018","tipo_expediente":"OC Obras edif. para incr. nº viviendas","uso":"Residencial","distrito":"CENTRO","direccion":"CALLE EMBAJADORES 000001","procedimiento":"Procedimiento Ordinario Abreviado"}},{"type":"Feature","geometry":{"type":"Point","coordinates":[-3.7064328167515685,40.42369502804111]},"properties":{"licencia_urbana":true,"anio_dataset":2018,"fecha_concesion":"22/10/2018","tipo_expediente":"OC Obras transformación locales en viviendas","uso":"Residencial","distrito":"CENTRO","direccion":"CALLE ANDRES BORREGO 000014","procedimiento":"Procedimiento Ordinario Común"}},{"type":"Feature","geometry":{"type":"Point","coordinates":[-3.7012421029880263,40.410398020202365]},"properties":{"licencia_urbana":true,"anio_dataset":2018,"fecha_concesion":"19/02/2018","tipo_expediente":"OBRAS DE ACONDICIONAMIENTO PUNTUAL DE EDIFICIO CATALOGADO","uso":"Residencial","distrito":"CENTRO","direccion":"CALLE SAN CARLOS 000012","procedimiento":"Procedimiento Ordinario Común"}},{"type":"Feature","geometry":{"type":"Point","coordinates":[-3.6976504462379864,40.42406511570822]},"properties":{"licencia_urbana":true,"anio_dataset":2018,"fecha_concesion":"11/10/2018","tipo_expediente":"OBRAS DE CONSOLIDACIÓN","uso":"Residencial","distrito":"CENTRO","direccion":"CALLE PELAYO 000041","procedimiento":"Procedimiento Ordinario Común"}},{"type":"Feature","geometry":{"type":"Point","coordinates":[-3.6966151447528355,40.42417370113944]},"properties":{"licencia_urbana":true,"anio_dataset":2018,"fecha_concesion":"12/11/2018","tipo_expediente":"OBRAS DE REESTRUCTURACIÓN PUNTUAL","uso":"Residencial","distrito":"CENTRO","direccion":"CALLE BELEN 000006","procedimiento":"Procedimiento Ordinario Común"}},{"type":"Feature","geometry":{"type":"Point","coordinates":[-3.6989844545808164,40.42331849748932]},"properties":{"licencia_urbana":true,"anio_dataset":2018,"fecha_concesion":"12/11/2018","tipo_expediente":"OBRAS DE ACONDICIONAMIENTO PUNTUAL DE EDIFICIO CATALOGADO","uso":"Residencial","distrito":"CENTRO","direccion":"CALLE HORTALEZA 000057","procedimiento":"Procedimiento Ordinario Común"}},{"type":"Feature","geometry":{"type":"Point","coordinates":[-3.69945855065505,40.42732212626841]},"properties":{"licencia_urbana":true,"anio_dataset":2018,"fecha_concesion":"03/04/2018","tipo_expediente":"OBRAS DE CONSOLIDACIÓN","uso":"Residencial","distrito":"CENTRO","direccion":"CALLE APODACA 000022","procedimiento":"Procedimiento Ordinario Común"}},{"type":"Feature","geometry":{"type":"Point","coordinates":[-3.7097256219608727,40.42792468900837]},"properties":{"licencia_urbana":true,"anio_dataset":2018,"fecha_concesion":"04/07/2018","tipo_expediente":"OBRAS DE CONSOLIDACIÓN","uso":"Residencial","distrito":"CENTRO","direccion":"CALLE MONTSERRAT 000032","procedimiento":"Procedimiento Ordinario Común"}},{"type":"Feature","geometry":{"type":"Point","coordinates":[-3.7091410319988167,40.40949371292353]},"properties":{"licencia_urbana":true,"anio_dataset":2018,"fecha_concesion":"24/01/2018","tipo_expediente":"OBRAS DE CONSOLIDACIÓN","uso":"Residencial","distrito":"CENTRO","direccion":"CALLE SANTA ANA 000014","procedimiento":"Procedimiento Ordinario Común"}},{"type":"Feature","geometry":{"type":"Point","coordinates":[-3.6952284612028627,40.4249835819184]},"properties":{"licencia_urbana":true,"anio_dataset":2018,"fecha_concesion":"23/10/2018","tipo_expediente":"OBRAS DE REESTRUCTURACIÓN PUNTUAL","uso":"Residencial","distrito":"CENTRO","direccion":"CALLE ARGENSOLA 000005","procedimiento":"Procedimiento Ordinario Común"}},{"type":"Feature","geometry":{"type":"Point","coordinates":[-3.704730083738114,40.41329763687933]},"properties":{"licencia_urbana":true,"anio_dataset":2018,"fecha_concesion":"11/12/2018","tipo_expediente":"ACONDICIONAMIENTO DE NUEVAS INSTALALACIONES/MODERNIZACIÓN DE LAS EXISTENTES","uso":"Residencial","distrito":"CENTRO","direccion":"CALLE CONDE DE ROMANONES 000007","procedimiento":"Procedimiento Ordinario Abreviado"}},{"type":"Feature","geometry":{"type":"Point","coordinates":[-3.7121070831268868,40.411031706380534]},"properties":{"licencia_urbana":true,"anio_dataset":2018,"fecha_concesion":"11/12/2018","tipo_expediente":"OBRAS DE CONSOLIDACIÓN","uso":"Residencial","distrito":"CENTRO","direccion":"CARRERA SAN FRANCISCO 000003","procedimiento":"Procedimiento Ordinario Común"}},{"type":"Feature","geometry":{"type":"Point","coordinates":[-3.698046873933491,40.417472611454535]},"properties":{"licencia_urbana":true,"anio_dataset":2018,"fecha_concesion":"09/10/2018","tipo_expediente":"OBRAS DE CONSERVACIÓN","uso":"Residencial","distrito":"CENTRO","direccion":"CALLE LOS MADRAZO 000006","procedimiento":"Procedimiento Ordinario Común"}},{"type":"Feature","geometry":{"type":"Point","coordinates":[-3.707036723983696,40.42205124207373]},"properties":{"licencia_urbana":true,"anio_dataset":2018,"fecha_concesion":"10/10/2018","tipo_expediente":"OBRAS DE RESTAURACIÓN","uso":"Residencial","distrito":"CENTRO","direccion":"CALLE MARQUES DE LEGANES 000005","procedimiento":"Procedimiento Ordinario Abreviado"}},{"type":"Feature","geometry":{"type":"Point","coordinates":[-3.6972273305107146,40.42459821013813]},"properties":{"licencia_urbana":true,"anio_dataset":2018,"fecha_concesion":"06/07/2018","tipo_expediente":"OBRAS DE REESTRUCTURACIÓN PUNTUAL","uso":"Residencial","distrito":"CENTRO","direccion":"CALLE PELAYO 000055","procedimiento":"Procedimiento Ordinario Común"}},{"type":"Feature","geometry":{"type":"Point","coordinates":[-3.7041471153936913,40.42613906765344]},"properties":{"licencia_urbana":true,"anio_dataset":2018,"fecha_concesion":"12/11/2018","tipo_expediente":"OBRAS DE CONSOLIDACIÓN","uso":"Residencial","distrito":"CENTRO","direccion":"CALLE DOS DE MAYO 000006","procedimiento":"Procedimiento Ordinario Común"}},{"type":"Feature","geometry":{"type":"Point","coordinates":[-3.7104632165481175,40.42646475067404]},"properties":{"licencia_urbana":true,"anio_dataset":2018,"fecha_concesion":"19/04/2018","tipo_expediente":"OBRAS DE CONSOLIDACIÓN","uso":"Residencial","distrito":"CENTRO","direccion":"CALLE LIMON 000016","procedimiento":"Procedimiento Ordinario Común"}},{"type":"Feature","geometry":{"type":"Point","coordinates":[-3.7104903771379827,40.42640197103261]},"properties":{"licencia_urbana":true,"anio_dataset":2018,"fecha_concesion":"09/10/2018","tipo_expediente":"REESTRUCTURACIÓN PUNTUAL","uso":"Residencial","distrito":"CENTRO","direccion":"CALLE LIMON 000014","procedimiento":"Procedimiento Ordinario Abreviado"}},{"type":"Feature","geometry":{"type":"Point","coordinates":[-3.701982118085879,40.415341299344036]},"properties":{"licencia_urbana":true,"anio_dataset":2018,"fecha_concesion":"12/11/2018","tipo_expediente":"OBRAS DE CONSOLIDACIÓN","uso":"Residencial","distrito":"CENTRO","direccion":"CALLE CRUZ 000023","procedimiento":"Procedimiento Ordinario Común"}},{"type":"Feature","geometry":{"type":"Point","coordinates":[-3.7014373082844187,40.4091410640771]},"properties":{"licencia_urbana":true,"anio_dataset":2018,"fecha_concesion":"20/11/2018","tipo_expediente":"OBRAS DE CONSOLIDACIÓN","uso":"Residencial","distrito":"CENTRO","direccion":"CALLE OLIVAR 000054","procedimiento":"Procedimiento Ordinario Común"}},{"type":"Feature","geometry":{"type":"Point","coordinates":[-3.710796594580288,40.42484053614283]},"properties":{"licencia_urbana":true,"anio_dataset":2018,"fecha_concesion":"24/10/2018","tipo_expediente":"OBRAS DE CONSOLIDACIÓN","uso":"Residencial","distrito":"CENTRO","direccion":"CALLE SAN LEONARDO 000007","procedimiento":"Procedimiento Ordinario Común"}},{"type":"Feature","geometry":{"type":"Point","coordinates":[-3.7022622795903946,40.42669855142156]},"properties":{"licencia_urbana":true,"anio_dataset":2018,"fecha_concesion":"05/06/2018","tipo_expediente":"OBRAS DE REESTRUCTURACIÓN PUNTUAL","uso":"Residencial","distrito":"CENTRO","direccion":"CALLE VELARDE 000003","procedimiento":"Procedimiento Ordinario Común"}},{"type":"Feature","geometry":{"type":"Point","coordinates":[-3.698191660475701,40.4213646335225]},"properties":{"licencia_urbana":true,"anio_dataset":2018,"fecha_concesion":"06/07/2018","tipo_expediente":"OBRAS DE CONSOLIDACIÓN","uso":"Residencial","distrito":"CENTRO","direccion":"CALLE SAN MARCOS 000023","procedimiento":"Procedimiento Ordinario Común"}},{"type":"Feature","geometry":{"type":"Point","coordinates":[-3.7039796908296014,40.4115488671835]},"properties":{"licencia_urbana":true,"anio_dataset":2018,"fecha_concesion":"12/11/2018","tipo_expediente":"OBRAS DE CONSOLIDACIÓN","uso":"Residencial","distrito":"CENTRO","direccion":"CALLE JESUS Y MARIA 000011","procedimiento":"Procedimiento Ordinario Común"}},{"type":"Feature","geometry":{"type":"Point","coordinates":[-3.702826972336947,40.424015834483406]},"properties":{"licencia_urbana":true,"anio_dataset":2018,"fecha_concesion":"08/03/2018","tipo_expediente":"OBRAS DE REESTRUCTURACIÓN PUNTUAL","uso":"Residencial","distrito":"CENTRO","direccion":"CALLE MOLINO DE VIENTO 000020","procedimiento":"Procedimiento Ordinario Común"}},{"type":"Feature","geometry":{"type":"Point","coordinates":[-3.7013479366228537,40.415403977169014]},"properties":{"licencia_urbana":true,"anio_dataset":2018,"fecha_concesion":"08/03/2018","tipo_expediente":"OBRAS DE CONSOLIDACIÓN","uso":"Residencial","distrito":"CENTRO","direccion":"CALLE NUÑEZ DE ARCE 000010","procedimiento":"Procedimiento Ordinario Común"}},{"type":"Feature","geometry":{"type":"Point","coordinates":[-3.7000479085526696,40.413952840849575]},"properties":{"licencia_urbana":true,"anio_dataset":2018,"fecha_concesion":"23/10/2018","tipo_expediente":"OBRAS DE CONSERVACIÓN","uso":"Residencial","distrito":"CENTRO","direccion":"CALLE PRINCIPE 000035","procedimiento":"Procedimiento Ordinario Común"}},{"type":"Feature","geometry":{"type":"Point","coordinates":[-3.7081977702457913,40.41820124144219]},"properties":{"licencia_urbana":true,"anio_dataset":2018,"fecha_concesion":"10/08/2018","tipo_expediente":"OBRAS DE ACONDICIONAMIENTO PUNTUAL","uso":"Residencial","distrito":"CENTRO","direccion":"PLAZA SANTA CATALINA DE LOS DONADOS 000002","procedimiento":"Procedimiento Ordinario Abreviado"}},{"type":"Feature","geometry":{"type":"Point","coordinates":[-3.6986943693106635,40.425040705924864]},"properties":{"licencia_urbana":true,"anio_dataset":2018,"fecha_concesion":"06/07/2018","tipo_expediente":"OBRAS DE CONSERVACIÓN","uso":"Residencial","distrito":"CENTRO","direccion":"CALLE SAN LORENZO 000011","procedimiento":"Procedimiento Ordinario Abreviado"}},{"type":"Feature","geometry":{"type":"Point","coordinates":[-3.701069571318,40.409967713005344]},"properties":{"licencia_urbana":true,"anio_dataset":2018,"fecha_concesion":"02/08/2018","tipo_expediente":"OC Obras transformación locales en viviendas","uso":"Residencial","distrito":"CENTRO","direccion":"CALLE AVE MARIA 000040","procedimiento":"Procedimiento Ordinario Común"}},{"type":"Feature","geometry":{"type":"Point","coordinates":[-3.709219274411797,40.42124543940397]},"properties":{"licencia_urbana":true,"anio_dataset":2018,"fecha_concesion":"25/05/2018","tipo_expediente":"OBRAS DE CONSOLIDACIÓN","uso":"Residencial","distrito":"CENTRO","direccion":"CALLE ISABEL LA CATOLICA 000009","procedimiento":"Procedimiento Ordinario Común"}},{"type":"Feature","geometry":{"type":"Point","coordinates":[-3.7020862361781885,40.412430924993885]},"properties":{"licencia_urbana":true,"anio_dataset":2018,"fecha_concesion":"12/11/2018","tipo_expediente":"OBRAS DE REESTRUCTURACIÓN PUNTUAL","uso":"Residencial","distrito":"CENTRO","direccion":"CALLE MAGDALENA 000011","procedimiento":"Procedimiento Ordinario Común"}},{"type":"Feature","geometry":{"type":"Point","coordinates":[-3.7036467929289048,40.42545895924252]},"properties":{"licencia_urbana":true,"anio_dataset":2018,"fecha_concesion":"09/08/2018","tipo_expediente":"OBRAS DE REESTRUCTURACIÓN PUNTUAL","uso":"Residencial","distrito":"CENTRO","direccion":"CALLE ESPIRITU SANTO 000026","procedimiento":"Procedimiento Ordinario Común"}},{"type":"Feature","geometry":{"type":"Point","coordinates":[-3.708480336016332,40.42599007135981]},"properties":{"licencia_urbana":true,"anio_dataset":2018,"fecha_concesion":"18/09/2018","tipo_expediente":"OBRAS DE REESTRUCTURACIÓN PUNTUAL","uso":"Residencial","distrito":"CENTRO","direccion":"CALLE ACUERDO 000003","procedimiento":"Procedimiento Ordinario Común"}},{"type":"Feature","geometry":{"type":"Point","coordinates":[-3.7035364893136493,40.42728395865591]},"properties":{"licencia_urbana":true,"anio_dataset":2018,"fecha_concesion":"20/02/2018","tipo_expediente":"OBRAS DE CONSOLIDACIÓN","uso":"Residencial","distrito":"CENTRO","direccion":"CALLE SAN ANDRES 000024","procedimiento":"Procedimiento Ordinario Común"}},{"type":"Feature","geometry":{"type":"Point","coordinates":[-3.7012608328022973,40.408659879829536]},"properties":{"licencia_urbana":true,"anio_dataset":2018,"fecha_concesion":"11/12/2018","tipo_expediente":"OBRAS DE CONSERVACIÓN","uso":"Residencial","distrito":"CENTRO","direccion":"PLAZA LAVAPIES 000008","procedimiento":"Procedimiento Ordinario Común"}},{"type":"Feature","geometry":{"type":"Point","coordinates":[-3.7007392046648446,40.4070008713522]},"properties":{"licencia_urbana":true,"anio_dataset":2018,"fecha_concesion":"01/02/2018","tipo_expediente":"OBRAS DE CONSOLIDACIÓN","uso":"Residencial","distrito":"CENTRO","direccion":"CALLE AMPARO 000091","procedimiento":"Procedimiento Ordinario Común"}},{"type":"Feature","geometry":{"type":"Point","coordinates":[-3.707519824326756,40.424135769341994]},"properties":{"licencia_urbana":true,"anio_dataset":2018,"fecha_concesion":"23/03/2018","tipo_expediente":"OBRAS DE RESTAURACIÓN","uso":"Dotacional","distrito":"CENTRO","direccion":"CALLE SAN BERNARDO 000045","procedimiento":"Procedimiento Ordinario Común"}},{"type":"Feature","geometry":{"type":"Point","coordinates":[-3.7078731317297393,40.426768296816654]},"properties":{"licencia_urbana":true,"anio_dataset":2018,"fecha_concesion":"11/12/2018","tipo_expediente":"OBRAS DE CONSOLIDACIÓN","uso":"Residencial","distrito":"CENTRO","direccion":"CALLE PALMA 000060","procedimiento":"Procedimiento Ordinario Común"}},{"type":"Feature","geometry":{"type":"Point","coordinates":[-3.7007137500971683,40.40667147425092]},"properties":{"licencia_urbana":true,"anio_dataset":2018,"fecha_concesion":"17/10/2018","tipo_expediente":"OBRAS DE CONSERVACIÓN","uso":"Residencial","distrito":"CENTRO","direccion":"CALLE AMPARO 000088","procedimiento":"Procedimiento Ordinario Abreviado"}},{"type":"Feature","geometry":{"type":"Point","coordinates":[-3.7126361453494363,40.42683759374026]},"properties":{"licencia_urbana":true,"anio_dataset":2018,"fecha_concesion":"23/10/2018","tipo_expediente":"TALAS DE ÁRBOLES","uso":"","distrito":"CENTRO","direccion":"CALLE PRINCESA 000020","procedimiento":"Procedimiento Ordinario Común"}},{"type":"Feature","geometry":{"type":"Point","coordinates":[-3.7122972120196627,40.41961768379111]},"properties":{"licencia_urbana":true,"anio_dataset":2018,"fecha_concesion":"27/09/2018","tipo_expediente":"OBRAS DE CONSOLIDACIÓN","uso":"Residencial","distrito":"CENTRO","direccion":"CALLE SAN QUINTIN 000006","procedimiento":"Procedimiento Ordinario Común"}},{"type":"Feature","geometry":{"type":"Point","coordinates":[-3.7122972120196627,40.41961768379111]},"properties":{"licencia_urbana":true,"anio_dataset":2018,"fecha_concesion":"27/09/2018","tipo_expediente":"OBRAS DE CONSOLIDACIÓN","uso":"Residencial","distrito":"CENTRO","direccion":"CALLE SAN QUINTIN 000006","procedimiento":"Procedimiento Ordinario Común"}},{"type":"Feature","geometry":{"type":"Point","coordinates":[-3.7060344818167725,40.41277913609477]},"properties":{"licencia_urbana":true,"anio_dataset":2018,"fecha_concesion":"20/11/2018","tipo_expediente":"OBRAS DE CONSOLIDACIÓN","uso":"Residencial","distrito":"CENTRO","direccion":"CALLE COLEGIATA 000011","procedimiento":"Procedimiento Ordinario Común"}},{"type":"Feature","geometry":{"type":"Point","coordinates":[-3.6956622673259374,40.42606989404687]},"properties":{"licencia_urbana":true,"anio_dataset":2018,"fecha_concesion":"10/12/2018","tipo_expediente":"OBRAS DE CONSERVACIÓN","uso":"Residencial","distrito":"CENTRO","direccion":"CALLE CAMPOAMOR 000012","procedimiento":"Procedimiento Ordinario Común"}},{"type":"Feature","geometry":{"type":"Point","coordinates":[-3.7022622795903946,40.42669855142156]},"properties":{"licencia_urbana":true,"anio_dataset":2018,"fecha_concesion":"05/06/2018","tipo_expediente":"OBRAS DE REESTRUCTURACIÓN PUNTUAL","uso":"Residencial","distrito":"CENTRO","direccion":"CALLE VELARDE 000003","procedimiento":"Procedimiento Ordinario Común"}},{"type":"Feature","geometry":{"type":"Point","coordinates":[-3.710428604179271,40.421203059509835]},"properties":{"licencia_urbana":true,"anio_dataset":2018,"fecha_concesion":"23/10/2018","tipo_expediente":"REESTRUCTURACIÓN PUNTUAL","uso":"Residencial","distrito":"CENTRO","direccion":"CALLE FOMENTO 000016","procedimiento":"Procedimiento Ordinario Abreviado"}},{"type":"Feature","geometry":{"type":"Point","coordinates":[-3.697873971000407,40.4225614201021]},"properties":{"licencia_urbana":true,"anio_dataset":2018,"fecha_concesion":"14/09/2018","tipo_expediente":"OBRAS DE CONSOLIDACIÓN","uso":"Residencial","distrito":"CENTRO","direccion":"PLAZA CHUECA 000002","procedimiento":"Procedimiento Ordinario Común"}},{"type":"Feature","geometry":{"type":"Point","coordinates":[-3.7111887675399378,40.41400277648022]},"properties":{"licencia_urbana":true,"anio_dataset":2018,"fecha_concesion":"23/10/2018","tipo_expediente":"OBRAS DE CONSERVACIÓN","uso":"Residencial","distrito":"CENTRO","direccion":"CALLE ROLLO 000007","procedimiento":"Procedimiento Ordinario Común"}},{"type":"Feature","geometry":{"type":"Point","coordinates":[-3.7015474539376414,40.41027121226845]},"properties":{"licencia_urbana":true,"anio_dataset":2018,"fecha_concesion":"11/12/2018","tipo_expediente":"OBRAS DE CONSOLIDACIÓN","uso":"Residencial","distrito":"CENTRO","direccion":"CALLE OLIVAR 000029","procedimiento":"Procedimiento Ordinario Común"}},{"type":"Feature","geometry":{"type":"Point","coordinates":[-3.7056451262140353,40.412830252016015]},"properties":{"licencia_urbana":true,"anio_dataset":2018,"fecha_concesion":"09/10/2018","tipo_expediente":"OBRAS DE CONSOLIDACIÓN","uso":"Residencial","distrito":"CENTRO","direccion":"CALLE COLEGIATA 000004","procedimiento":"Procedimiento Ordinario Común"}},{"type":"Feature","geometry":{"type":"Point","coordinates":[-3.7055821586277675,40.41039008470027]},"properties":{"licencia_urbana":true,"anio_dataset":2018,"fecha_concesion":"12/11/2018","tipo_expediente":"OBRAS DE CONSOLIDACIÓN","uso":"Residencial","distrito":"CENTRO","direccion":"CALLE DOS HERMANAS 000011","procedimiento":"Procedimiento Ordinario Común"}},{"type":"Feature","geometry":{"type":"Point","coordinates":[-3.699197197124377,40.413307265039954]},"properties":{"licencia_urbana":true,"anio_dataset":2018,"fecha_concesion":"12/11/2018","tipo_expediente":"OBRAS DE CONSOLIDACIÓN","uso":"Residencial","distrito":"CENTRO","direccion":"CALLE LEON 000024","procedimiento":"Procedimiento Ordinario Común"}},{"type":"Feature","geometry":{"type":"Point","coordinates":[-3.698184814578414,40.426003966783384]},"properties":{"licencia_urbana":true,"anio_dataset":2018,"fecha_concesion":"19/11/2018","tipo_expediente":"OBRAS DE CONSERVACIÓN","uso":"Residencial","distrito":"CENTRO","direccion":"CALLE SAN MATEO 000028","procedimiento":"Procedimiento Ordinario Abreviado"}},{"type":"Feature","geometry":{"type":"Point","coordinates":[-3.6974951228271458,40.41611458471342]},"properties":{"licencia_urbana":true,"anio_dataset":2018,"fecha_concesion":"11/12/2018","tipo_expediente":"OBRAS DE CONSOLIDACIÓN","uso":"Residencial","distrito":"CENTRO","direccion":"CARRERA SAN JERONIMO 000044","procedimiento":"Procedimiento Ordinario Común"}},{"type":"Feature","geometry":{"type":"Point","coordinates":[-3.6937718257234096,40.405365940945764]},"properties":{"licencia_urbana":true,"anio_dataset":2018,"fecha_concesion":"24/04/2018","tipo_expediente":"NUEVA IMPLANTACIÓN DE ACTIVIDADCON OBRA ACONDICIONAMIENTO PUNTUAL","uso":"Garaje-Aparcamiento","distrito":"ARGANZUELA","direccion":"CALLE MURCIA 000011","procedimiento":"Procedimiento Ordinario Abreviado"}},{"type":"Feature","geometry":{"type":"Point","coordinates":[-3.6937718257234096,40.405365940945764]},"properties":{"licencia_urbana":true,"anio_dataset":2018,"fecha_concesion":"24/04/2018","tipo_expediente":"NUEVA IMPLANTACIÓN DE ACTIVIDADCON OBRA ACONDICIONAMIENTO PUNTUAL","uso":"Garaje-Aparcamiento","distrito":"ARGANZUELA","direccion":"CALLE MURCIA 000011","procedimiento":"Procedimiento Ordinario Abreviado"}},{"type":"Feature","geometry":{"type":"Point","coordinates":[-3.6971532939925487,40.40014628959375]},"properties":{"licencia_urbana":true,"anio_dataset":2018,"fecha_concesion":"29/06/2018","tipo_expediente":"OC Obras transformación locales en viviendas","uso":"Residencial","distrito":"ARGANZUELA","direccion":"CALLE CIUDAD REAL 000032","procedimiento":"Procedimiento Ordinario Común"}},{"type":"Feature","geometry":{"type":"Point","coordinates":[-3.70170001002966,40.40149239910711]},"properties":{"licencia_urbana":true,"anio_dataset":2018,"fecha_concesion":"02/03/2018","tipo_expediente":"REESTRUCTURACIÓN PUNTUAL","uso":"Residencial","distrito":"ARGANZUELA","direccion":"CALLE ERCILLA 000037","procedimiento":"Procedimiento Ordinario Abreviado"}},{"type":"Feature","geometry":{"type":"Point","coordinates":[-3.719437319953668,40.41047488319512]},"properties":{"licencia_urbana":true,"anio_dataset":2018,"fecha_concesion":"29/06/2018","tipo_expediente":"REESTRUCTURACIÓN PUNTUAL","uso":"Residencial","distrito":"ARGANZUELA","direccion":"CALLE JUAN DUQUE 000031","procedimiento":"Procedimiento Ordinario Abreviado"}},{"type":"Feature","geometry":{"type":"Point","coordinates":[-3.705344114491026,40.41006558963486]},"properties":{"licencia_urbana":true,"anio_dataset":2018,"fecha_concesion":"08/08/2018","tipo_expediente":"OBRAS DE REESTRUCTURACIÓN PUNTUAL","uso":"Residencial","distrito":"CENTRO","direccion":"CALLE ABADES 000016","procedimiento":"Procedimiento Ordinario Común"}},{"type":"Feature","geometry":{"type":"Point","coordinates":[-3.705364277160297,40.41563116639821]},"properties":{"licencia_urbana":true,"anio_dataset":2018,"fecha_concesion":"09/10/2018","tipo_expediente":"OBRAS DE CONSOLIDACIÓN","uso":"Residencial","distrito":"CENTRO","direccion":"CALLE ESPARTEROS 000012","procedimiento":"Procedimiento Ordinario Común"}},{"type":"Feature","geometry":{"type":"Point","coordinates":[-3.7099097998068524,40.426347159069444]},"properties":{"licencia_urbana":true,"anio_dataset":2018,"fecha_concesion":"19/11/2018","tipo_expediente":"OBRAS DE CONSERVACIÓN","uso":"Residencial","distrito":"CENTRO","direccion":"CALLE BERNARDO LOPEZ GARCIA 000007","procedimiento":"Procedimiento Ordinario Común"}},{"type":"Feature","geometry":{"type":"Point","coordinates":[-3.7066226064448458,40.42840351739409]},"properties":{"licencia_urbana":true,"anio_dataset":2018,"fecha_concesion":"08/08/2018","tipo_expediente":"OBRAS DE CONSOLIDACIÓN","uso":"Residencial","distrito":"CENTRO","direccion":"CALLE SAN HERMENEGILDO 000004","procedimiento":"Procedimiento Ordinario Común"}},{"type":"Feature","geometry":{"type":"Point","coordinates":[-3.704767169025146,40.42558312609818]},"properties":{"licencia_urbana":true,"anio_dataset":2018,"fecha_concesion":"09/10/2018","tipo_expediente":"OBRAS DE CONSOLIDACIÓN","uso":"Residencial","distrito":"CENTRO","direccion":"CALLE ESPIRITU SANTO 000036","procedimiento":"Procedimiento Ordinario Común"}},{"type":"Feature","geometry":{"type":"Point","coordinates":[-3.6956622673259374,40.42606989404687]},"properties":{"licencia_urbana":true,"anio_dataset":2018,"fecha_concesion":"10/12/2018","tipo_expediente":"OBRAS DE CONSERVACIÓN","uso":"Residencial","distrito":"CENTRO","direccion":"CALLE CAMPOAMOR 000012","procedimiento":"Procedimiento Ordinario Común"}},{"type":"Feature","geometry":{"type":"Point","coordinates":[-3.709476696129432,40.41199707048943]},"properties":{"licencia_urbana":true,"anio_dataset":2018,"fecha_concesion":"16/07/2018","tipo_expediente":"OBRAS EXTERIORES","uso":"Residencial","distrito":"CENTRO","direccion":"CALLE CAVA ALTA 000021","procedimiento":"Procedimiento Ordinario Abreviado"}},{"type":"Feature","geometry":{"type":"Point","coordinates":[-3.710703449339966,40.42524210059495]},"properties":{"licencia_urbana":true,"anio_dataset":2018,"fecha_concesion":"19/11/2018","tipo_expediente":"OBRAS DE CONSOLIDACIÓN","uso":"Residencial","distrito":"CENTRO","direccion":"CALLE SAN BERNARDINO 000009","procedimiento":"Procedimiento Ordinario Común"}},{"type":"Feature","geometry":{"type":"Point","coordinates":[-3.709086119164762,40.41216694473704]},"properties":{"licencia_urbana":true,"anio_dataset":2018,"fecha_concesion":"23/10/2018","tipo_expediente":"OBRAS DE CONSERVACIÓN","uso":"Residencial","distrito":"CENTRO","direccion":"CALLE CAVA ALTA 000015","procedimiento":"Procedimiento Ordinario Abreviado"}},{"type":"Feature","geometry":{"type":"Point","coordinates":[-3.712731029296506,40.412494895060604]},"properties":{"licencia_urbana":true,"anio_dataset":2018,"fecha_concesion":"10/12/2018","tipo_expediente":"OBRAS DE CONSOLIDACIÓN","uso":"Residencial","distrito":"CENTRO","direccion":"CALLE REDONDILLA 000008","procedimiento":"Procedimiento Ordinario Común"}},{"type":"Feature","geometry":{"type":"Point","coordinates":[-3.699587270050315,40.40814623155598]},"properties":{"licencia_urbana":true,"anio_dataset":2018,"fecha_concesion":"23/10/2018","tipo_expediente":"REESTRUCTURACIÓN PUNTUAL","uso":"Residencial","distrito":"CENTRO","direccion":"CALLE ARGUMOSA 000006","procedimiento":"Procedimiento Ordinario Abreviado"}},{"type":"Feature","geometry":{"type":"Point","coordinates":[-3.7094446775693584,40.408499232744546]},"properties":{"licencia_urbana":true,"anio_dataset":2018,"fecha_concesion":"23/10/2018","tipo_expediente":"OBRAS DE CONSOLIDACIÓN","uso":"Residencial","distrito":"CENTRO","direccion":"CALLE BASTERO 000019","procedimiento":"Procedimiento Ordinario Común"}},{"type":"Feature","geometry":{"type":"Point","coordinates":[-3.7076041439794034,40.42692868253509]},"properties":{"licencia_urbana":true,"anio_dataset":2018,"fecha_concesion":"16/11/2018","tipo_expediente":"OBRAS DE REESTRUCTURACIÓN PUNTUAL","uso":"Residencial","distrito":"CENTRO","direccion":"CALLE SAN DIMAS 000004","procedimiento":"Procedimiento Ordinario Común"}},{"type":"Feature","geometry":{"type":"Point","coordinates":[-3.709815127744688,40.42695179552002]},"properties":{"licencia_urbana":true,"anio_dataset":2018,"fecha_concesion":"11/12/2018","tipo_expediente":"OBRAS DE CONSERVACIÓN","uso":"Residencial","distrito":"CENTRO","direccion":"CALLE CRISTO 000002","procedimiento":"Procedimiento Ordinario Común"}},{"type":"Feature","geometry":{"type":"Point","coordinates":[-3.719537406795186,40.413431659539626]},"properties":{"licencia_urbana":true,"anio_dataset":2018,"fecha_concesion":"29/11/2018","tipo_expediente":"OBRAS DE ACONDICIONAMIENTO PUNTUAL","uso":"Residencial","distrito":"ARGANZUELA","direccion":"CALLE JUAN DUQUE 000006","procedimiento":"Procedimiento Ordinario Abreviado"}},{"type":"Feature","geometry":{"type":"Point","coordinates":[-3.7021244991666067,40.396866367474146]},"properties":{"licencia_urbana":true,"anio_dataset":2018,"fecha_concesion":"22/03/2018","tipo_expediente":"OBRAS DE CONSERVACIÓN","uso":"Residencial","distrito":"ARGANZUELA","direccion":"PASEO CHOPERA 000003","procedimiento":"Procedimiento Ordinario Común"}},{"type":"Feature","geometry":{"type":"Point","coordinates":[-3.710433615473633,40.40090113639187]},"properties":{"licencia_urbana":true,"anio_dataset":2018,"fecha_concesion":"29/06/2018","tipo_expediente":"OBRAS DE ACONDICIONAMIENTO PUNTUAL","uso":"Residencial","distrito":"ARGANZUELA","direccion":"CALLE MELILLA 000010","procedimiento":"Procedimiento Ordinario Abreviado"}},{"type":"Feature","geometry":{"type":"Point","coordinates":[-3.699553207600334,40.39725186489917]},"properties":{"licencia_urbana":true,"anio_dataset":2018,"fecha_concesion":"10/07/2018","tipo_expediente":"OC Obras transformación locales en viviendas","uso":"Residencial","distrito":"ARGANZUELA","direccion":"CALLE PARROCO JULIO MORATE 000007","procedimiento":"Procedimiento Ordinario Común"}},{"type":"Feature","geometry":{"type":"Point","coordinates":[-3.700948379469459,40.404045892814935]},"properties":{"licencia_urbana":true,"anio_dataset":2018,"fecha_concesion":"22/05/2018","tipo_expediente":"OC Obras transformación locales en viviendas","uso":"Residencial","distrito":"ARGANZUELA","direccion":"CALLE ALONSO DEL BARCO 000011","procedimiento":"Procedimiento Ordinario Común"}},{"type":"Feature","geometry":{"type":"Point","coordinates":[-3.702729615840856,40.40020163333839]},"properties":{"licencia_urbana":true,"anio_dataset":2018,"fecha_concesion":"02/03/2018","tipo_expediente":"REESTRUCTURACIÓN PUNTUAL","uso":"Residencial","distrito":"ARGANZUELA","direccion":"CALLE ARQUITECTURA 000003","procedimiento":"Procedimiento Ordinario Abreviado"}},{"type":"Feature","geometry":{"type":"Point","coordinates":[-3.6983014023067784,40.40500317614161]},"properties":{"licencia_urbana":true,"anio_dataset":2018,"fecha_concesion":"20/12/2018","tipo_expediente":"OC Obras transformación locales en viviendas","uso":"Residencial","distrito":"ARGANZUELA","direccion":"CALLE SEBASTIAN ELCANO 000019","procedimiento":"Procedimiento Ordinario Común"}},{"type":"Feature","geometry":{"type":"Point","coordinates":[-3.7179352511882304,40.413694593207566]},"properties":{"licencia_urbana":true,"anio_dataset":2018,"fecha_concesion":"13/12/2018","tipo_expediente":"OC Obras transformación locales en viviendas","uso":"Residencial","distrito":"ARGANZUELA","direccion":"CALLE SEGOVIA 000047","procedimiento":"Procedimiento Ordinario Común"}},{"type":"Feature","geometry":{"type":"Point","coordinates":[-3.719675294018547,40.40961357865238]},"properties":{"licencia_urbana":true,"anio_dataset":2018,"fecha_concesion":"24/04/2018","tipo_expediente":"OBRAS DE CONSOLIDACIÓN","uso":"Residencial","distrito":"ARGANZUELA","direccion":"CALLE JUAN DUQUE 000040","procedimiento":"Procedimiento Ordinario Común"}},{"type":"Feature","geometry":{"type":"Point","coordinates":[-3.70825756796382,40.39904780736405]},"properties":{"licencia_urbana":true,"anio_dataset":2018,"fecha_concesion":"17/10/2018","tipo_expediente":"OBRAS DE REESTRUCTURACIÓN PUNTUAL","uso":"","distrito":"ARGANZUELA","direccion":"PASEO YESERIAS 000031","procedimiento":"Procedimiento Ordinario Común"}},{"type":"Feature","geometry":{"type":"Point","coordinates":[-3.7190481298860147,40.4137172270416]},"properties":{"licencia_urbana":true,"anio_dataset":2018,"fecha_concesion":"08/01/2018","tipo_expediente":"REESTRUCTURACIÓN PUNTUAL","uso":"Residencial","distrito":"ARGANZUELA","direccion":"CALLE SEGOVIA 000063","procedimiento":"Procedimiento Ordinario Abreviado"}},{"type":"Feature","geometry":{"type":"Point","coordinates":[-3.6912301164526875,40.40017734610779]},"properties":{"licencia_urbana":true,"anio_dataset":2018,"fecha_concesion":"24/04/2018","tipo_expediente":"REESTRUCTURACIÓN PUNTUAL","uso":"Residencial","distrito":"ARGANZUELA","direccion":"CALLE GENERAL LACY 000058","procedimiento":"Procedimiento Ordinario Abreviado"}},{"type":"Feature","geometry":{"type":"Point","coordinates":[-3.689722620191658,40.40071238794876]},"properties":{"licencia_urbana":true,"anio_dataset":2018,"fecha_concesion":"08/05/2018","tipo_expediente":"PA Demolición total","uso":"Residencial","distrito":"ARGANZUELA","direccion":"CALLE BUSTAMANTE 000025","procedimiento":"Procedimiento Ordinario Común"}},{"type":"Feature","geometry":{"type":"Point","coordinates":[-3.7179916749950555,40.40202472807594]},"properties":{"licencia_urbana":true,"anio_dataset":2018,"fecha_concesion":"11/12/2018","tipo_expediente":"OC Obras transformación locales en viviendas","uso":"Residencial","distrito":"ARGANZUELA","direccion":"CALLE SAN EPIFANIO 000001","procedimiento":"Procedimiento Ordinario Común"}},{"type":"Feature","geometry":{"type":"Point","coordinates":[-3.718863913606354,40.40903267764823]},"properties":{"licencia_urbana":true,"anio_dataset":2018,"fecha_concesion":"23/11/2018","tipo_expediente":"OC Obras edif. para incr. nº viviendas","uso":"Residencial","distrito":"ARGANZUELA","direccion":"PASEO MELANCOLICOS 000013","procedimiento":"Procedimiento Ordinario Abreviado"}},{"type":"Feature","geometry":{"type":"Point","coordinates":[-3.7181704436447895,40.413699619041296]},"properties":{"licencia_urbana":true,"anio_dataset":2018,"fecha_concesion":"25/05/2018","tipo_expediente":"OBRAS DE CONSOLIDACIÓN","uso":"Residencial","distrito":"ARGANZUELA","direccion":"CALLE SEGOVIA 000053","procedimiento":"Procedimiento Ordinario Común"}},{"type":"Feature","geometry":{"type":"Point","coordinates":[-3.694273418091336,40.39974784879946]},"properties":{"licencia_urbana":true,"anio_dataset":2018,"fecha_concesion":"10/07/2018","tipo_expediente":"OBRAS DE CONSOLIDACIÓN","uso":"Residencial","distrito":"ARGANZUELA","direccion":"PASEO DELICIAS 000062","procedimiento":"Procedimiento Ordinario Común"}},{"type":"Feature","geometry":{"type":"Point","coordinates":[-3.7151782149229415,40.40123990740693]},"properties":{"licencia_urbana":true,"anio_dataset":2018,"fecha_concesion":"05/10/2018","tipo_expediente":"OC Obras transformación locales en viviendas","uso":"Residencial","distrito":"ARGANZUELA","direccion":"GLORIETA PIRAMIDES 000006","procedimiento":"Procedimiento Ordinario Común"}},{"type":"Feature","geometry":{"type":"Point","coordinates":[-3.696943401970314,40.405057856463344]},"properties":{"licencia_urbana":true,"anio_dataset":2018,"fecha_concesion":"20/12/2018","tipo_expediente":"OC Obras edif. para incr. nº viviendas","uso":"Residencial","distrito":"ARGANZUELA","direccion":"CALLE SEBASTIAN ELCANO 000036","procedimiento":"Procedimiento Ordinario Abreviado"}},{"type":"Feature","geometry":{"type":"Point","coordinates":[-3.6764941822804,40.41250629013405]},"properties":{"licencia_urbana":true,"anio_dataset":2018,"fecha_concesion":"17/07/2018","tipo_expediente":"OC Obras transformación locales en viviendas","uso":"Residencial","distrito":"RETIRO","direccion":"AVENIDA MENENDEZ PELAYO 000067","procedimiento":"Procedimiento Ordinario Común"}},{"type":"Feature","geometry":{"type":"Point","coordinates":[-3.6629740833584266,40.41697381922364]},"properties":{"licencia_urbana":true,"anio_dataset":2018,"fecha_concesion":"25/01/2018","tipo_expediente":"OBRAS DE ACONDICIONAMIENTO PUNTUAL","uso":"Residencial","distrito":"RETIRO","direccion":"CALLE JUAN ESPLANDIU 000005","procedimiento":"Procedimiento Ordinario Abreviado"}},{"type":"Feature","geometry":{"type":"Point","coordinates":[-3.6750972605012358,40.41702123455987]},"properties":{"licencia_urbana":true,"anio_dataset":2018,"fecha_concesion":"02/02/2018","tipo_expediente":"OBRAS EXTERIORES","uso":"Residencial","distrito":"RETIRO","direccion":"CALLE ALCALDE SAINZ DE BARANDA 000023","procedimiento":"Procedimiento Ordinario Abreviado"}},{"type":"Feature","geometry":{"type":"Point","coordinates":[-3.6733575493172426,40.41525299281483]},"properties":{"licencia_urbana":true,"anio_dataset":2018,"fecha_concesion":"26/06/2018","tipo_expediente":"OBRAS EXTERIORES","uso":"Residencial","distrito":"RETIRO","direccion":"PLAZA DOCTOR LAGUNA 000002","procedimiento":"Procedimiento Ordinario Abreviado"}},{"type":"Feature","geometry":{"type":"Point","coordinates":[-3.6771235944198133,40.40755852311455]},"properties":{"licencia_urbana":true,"anio_dataset":2018,"fecha_concesion":"18/04/2018","tipo_expediente":"OBRAS EXTERIORES","uso":"Residencial","distrito":"RETIRO","direccion":"AVENIDA MEDITERRANEO 000005","procedimiento":"Procedimiento Ordinario Abreviado"}},{"type":"Feature","geometry":{"type":"Point","coordinates":[-3.690794277700433,40.41258579016596]},"properties":{"licencia_urbana":true,"anio_dataset":2018,"fecha_concesion":"15/01/2018","tipo_expediente":"OBRAS DE REESTRUCTURACIÓN PUNTUAL","uso":"Residencial","distrito":"RETIRO","direccion":"CALLE ESPALTER 000002","procedimiento":"Procedimiento Ordinario Común"}},{"type":"Feature","geometry":{"type":"Point","coordinates":[-3.6828765677821083,40.40746018381313]},"properties":{"licencia_urbana":true,"anio_dataset":2018,"fecha_concesion":"04/05/2018","tipo_expediente":"REESTRUCTURACIÓN PUNTUAL","uso":"Residencial","distrito":"RETIRO","direccion":"CALLE AGUSTIN QUEROL 000006","procedimiento":"Procedimiento Ordinario Abreviado"}},{"type":"Feature","geometry":{"type":"Point","coordinates":[-3.6750095303489894,40.412240911813385]},"properties":{"licencia_urbana":true,"anio_dataset":2018,"fecha_concesion":"13/07/2018","tipo_expediente":"OBRAS DE REESTRUCTURACIÓN PUNTUAL","uso":"Residencial","distrito":"RETIRO","direccion":"CALLE PORTAL DE BELEN 000002","procedimiento":"Procedimiento Ordinario Común"}},{"type":"Feature","geometry":{"type":"Point","coordinates":[-3.668456533584081,40.419339560069936]},"properties":{"licencia_urbana":true,"anio_dataset":2018,"fecha_concesion":"19/03/2018","tipo_expediente":"OBRAS DE REESTRUCTURACIÓN PUNTUAL","uso":"Residencial","distrito":"RETIRO","direccion":"CALLE VICENTE CABALLERO 000012","procedimiento":"Procedimiento Ordinario Común"}},{"type":"Feature","geometry":{"type":"Point","coordinates":[-3.675636312947018,40.41178067175909]},"properties":{"licencia_urbana":true,"anio_dataset":2018,"fecha_concesion":"02/03/2018","tipo_expediente":"OBRAS DE REESTRUCTURACIÓN PUNTUAL","uso":"Residencial","distrito":"RETIRO","direccion":"CALLE ANUNCIACION 000004","procedimiento":"Procedimiento Ordinario Común"}},{"type":"Feature","geometry":{"type":"Point","coordinates":[-3.6787596107440894,40.40632396789107]},"properties":{"licencia_urbana":true,"anio_dataset":2018,"fecha_concesion":"02/02/2018","tipo_expediente":"OBRAS EXTERIORES","uso":"Residencial","distrito":"RETIRO","direccion":"CALLE JOSE SANCHEZ PESCADOR 000012","procedimiento":"Procedimiento Ordinario Abreviado"}},{"type":"Feature","geometry":{"type":"Point","coordinates":[-3.6699003258914455,40.407390237552846]},"properties":{"licencia_urbana":true,"anio_dataset":2018,"fecha_concesion":"21/03/2018","tipo_expediente":"OBRAS EXTERIORES","uso":"Residencial","distrito":"RETIRO","direccion":"CALLE DOCTOR ESQUERDO 000171","procedimiento":"Procedimiento Ordinario Abreviado"}},{"type":"Feature","geometry":{"type":"Point","coordinates":[-3.6776992303037956,40.41858223530226]},"properties":{"licencia_urbana":true,"anio_dataset":2018,"fecha_concesion":"18/04/2018","tipo_expediente":"OBRAS DE REESTRUCTURACIÓN PUNTUAL","uso":"Residencial","distrito":"RETIRO","direccion":"CALLE LOPE DE RUEDA 000049","procedimiento":"Procedimiento Ordinario Común"}},{"type":"Feature","geometry":{"type":"Point","coordinates":[-3.690619448970055,40.408639066243715]},"properties":{"licencia_urbana":true,"anio_dataset":2018,"fecha_concesion":"25/03/2018","tipo_expediente":"OBRAS DE CONSERVACIÓN","uso":"Dotacional","distrito":"RETIRO","direccion":"PASEO INFANTA ISABEL 000001","procedimiento":"Procedimiento Ordinario Común"}},{"type":"Feature","geometry":{"type":"Point","coordinates":[-3.6690706559699464,40.41569833278258]},"properties":{"licencia_urbana":true,"anio_dataset":2018,"fecha_concesion":"25/01/2018","tipo_expediente":"OBRAS EN EXTERIORES","uso":"Residencial","distrito":"RETIRO","direccion":"CALLE RAFAEL SALAZAR ALONSO 000001","procedimiento":"Procedimiento Ordinario Común"}},{"type":"Feature","geometry":{"type":"Point","coordinates":[-3.66932294334776,40.414073801035464]},"properties":{"licencia_urbana":true,"anio_dataset":2018,"fecha_concesion":"04/04/2018","tipo_expediente":"OBRAS DE REESTRUCTURACIÓN PUNTUAL","uso":"Residencial","distrito":"RETIRO","direccion":"CALLE DOCTOR ESQUERDO 000111","procedimiento":"Procedimiento Ordinario Común"}},{"type":"Feature","geometry":{"type":"Point","coordinates":[-3.677774432335502,40.41610376530197]},"properties":{"licencia_urbana":true,"anio_dataset":2018,"fecha_concesion":"19/07/2018","tipo_expediente":"OBRAS DE REESTRUCTURACIÓN PUNTUAL","uso":"Residencial","distrito":"RETIRO","direccion":"AVENIDA MENENDEZ PELAYO 000055","procedimiento":"Procedimiento Ordinario Común"}},{"type":"Feature","geometry":{"type":"Point","coordinates":[-3.6728277806732863,40.39905561282053]},"properties":{"licencia_urbana":true,"anio_dataset":2018,"fecha_concesion":"14/05/2018","tipo_expediente":"OC Obras transformación locales en viviendas","uso":"Residencial","distrito":"RETIRO","direccion":"CALLE SECO 000008","procedimiento":"Procedimiento Ordinario Común"}},{"type":"Feature","geometry":{"type":"Point","coordinates":[-3.6735699542350444,40.41693221417988]},"properties":{"licencia_urbana":true,"anio_dataset":2018,"fecha_concesion":"07/05/2018","tipo_expediente":"OBRAS DE REESTRUCTURACIÓN PUNTUAL","uso":"Residencial","distrito":"RETIRO","direccion":"CALLE ALCALDE SAINZ DE BARANDA 000035","procedimiento":"Procedimiento Ordinario Común"}},{"type":"Feature","geometry":{"type":"Point","coordinates":[-3.6685551198622783,40.413949594121526]},"properties":{"licencia_urbana":true,"anio_dataset":2018,"fecha_concesion":"09/05/2018","tipo_expediente":"OBRAS DE REESTRUCTURACIÓN PUNTUAL","uso":"Residencial","distrito":"RETIRO","direccion":"CALLE VALORES 000002","procedimiento":"Procedimiento Ordinario Común"}},{"type":"Feature","geometry":{"type":"Point","coordinates":[-3.6764030425190635,40.418764781557606]},"properties":{"licencia_urbana":true,"anio_dataset":2018,"fecha_concesion":"09/03/2018","tipo_expediente":"OBRAS DE CONSOLIDACIÓN","uso":"Residencial","distrito":"RETIRO","direccion":"CALLE NARVAEZ 000060","procedimiento":"Procedimiento Ordinario Común"}},{"type":"Feature","geometry":{"type":"Point","coordinates":[-3.677030313327254,40.409281512215294]},"properties":{"licencia_urbana":true,"anio_dataset":2018,"fecha_concesion":"14/05/2018","tipo_expediente":"OC Obras edif. para incr. nº viviendas","uso":"Residencial","distrito":"RETIRO","direccion":"CALLE CONDE DE CARTAGENA 000003","procedimiento":"Procedimiento Ordinario Abreviado"}},{"type":"Feature","geometry":{"type":"Point","coordinates":[-3.692021796072845,40.41238844862885]},"properties":{"licencia_urbana":true,"anio_dataset":2018,"fecha_concesion":"18/06/2018","tipo_expediente":"OBRAS DE AMPLIACIÓN/IMPLANTACIÓN DE NUEVA ACTIVIDAD","uso":"Servicios terciarios","distrito":"RETIRO","direccion":"PLAZA MURILLO 000002","procedimiento":"Procedimiento Ordinario Común"}},{"type":"Feature","geometry":{"type":"Point","coordinates":[-3.670269961261696,40.401026969770996]},