{"type": "FeatureCollection", "features": [{"type": "Feature", "properties": {"stable_key": "402f93828c7125ba5c81383b33c28c9125d6aca168e63d10f506e99d373e053a", "municipio": "Lepe", "sector": "Exención viviendas protegidas suelo urbanizable del litoral", "provincia_linea": "Lepe, Huelva", "boletin_source_id": "boja", "resolver_id": "nominatim_municipio_centroid", "DS_NOMB_AMB": null, "geometry_scope": "municipio_centroid_fallback"}, "geometry": {"type": "Point", "coordinates": [-7.201556, 37.2551712]}}, {"type": "Feature", "properties": {"stable_key": "804042f82fd7f9e8b9908410d129accbc5264bb5b503909c13a9b7ae5973079b", "municipio": "Higuera de las Dueñas", "sector": "Sector 11, Avenida de Portugal n.º 40", "provincia_linea": "Higuera de las Dueñas (Ávila)", "boletin_source_id": "bocyl", "resolver_id": "nominatim_municipio_centroid", "DS_NOMB_AMB": null, "geometry_scope": "municipio_centroid_fallback"}, "geometry": {"type": "Point", "coordinates": [-4.6032406, 40.2395323]}}, {"type": "Feature", "properties": {"stable_key": "4342dc1a99d9405659ad78ada2238e32cc2d1bebfbc2c960a9ae0e0e2cdeb245", "municipio": "Peñaranda de Bracamonte", "sector": "Er Extrarradio 48 (Barrio San Roque, 48)", "provincia_linea": "Peñaranda de Bracamonte (Salamanca)", "boletin_source_id": "bocyl", "resolver_id": "nominatim_municipio_centroid", "DS_NOMB_AMB": null, "geometry_scope": "municipio_centroid_fallback"}, "geometry": {"type": "Point", "coordinates": [-5.2006416, 40.9024602]}}, {"type": "Feature", "properties": {"stable_key": "2bbcc935ac33782dcee62da005cc4d189eae81f498bc40687d05c269877f4494", "municipio": "Mucientes", "sector": "Sector U-1", "provincia_linea": "Mucientes (Valladolid)", "boletin_source_id": "bocyl", "resolver_id": "nominatim_municipio_centroid", "DS_NOMB_AMB": null, "geometry_scope": "municipio_centroid_fallback"}, "geometry": {"type": "Point", "coordinates": [-4.7625466, 41.7425016]}}, {"type": "Feature", "properties": {"stable_key": "f92144d89aef75fea1ce757b728dbbe6b335cddaaadec1087debfaa51e9bc3fb", "municipio": "Nava de la Asunción", "sector": "Ordenanza 1, Residencial A (RA): Artículo 136", "provincia_linea": "Nava de la Asunción (Segovia)", "boletin_source_id": "bocyl", "resolver_id": "nominatim_municipio_centroid", "DS_NOMB_AMB": null, "geometry_scope": "municipio_centroid_fallback"}, "geometry": {"type": "Point", "coordinates": [-4.4878095, 41.1555121]}}, {"type": "Feature", "properties": {"stable_key": "e07120d1ce9d4c2242fa1eb823088917a1fbdde4de938f2d513e69e70263dd15", "municipio": "Alcalà de Xivert", "sector": "RES-7", "provincia_linea": "Alcalà de Xivert", "boletin_source_id": "dogv", "resolver_id": "nominatim_municipio_centroid", "DS_NOMB_AMB": null, "geometry_scope": "municipio_centroid_fallback"}, "geometry": {"type": "Point", "coordinates": [0.2252763, 40.3041662]}}, {"type": "Feature", "properties": {"stable_key": "b2cf5468064064556e941f11f54218c210620dda8da137a8f64973eea33a4f13", "municipio": "Miranda de Azán", "sector": "Los Guijos (SUNC)", "provincia_linea": "Miranda de Azán - Salamanca", "boletin_source_id": "bocyl", "resolver_id": "nominatim_municipio_centroid", "DS_NOMB_AMB": null, "geometry_scope": "municipio_centroid_fallback"}, "geometry": {"type": "Point", "coordinates": [-5.6817029, 40.8868068]}}, {"type": "Feature", "properties": {"stable_key": "123e6f979397d07ca3ce1c5bd062b9aa047e298ed1dec11b73610908d0792bd4", "municipio": "Lepe", "sector": "Exención de vivienda protegida en suelo urbanizable del Litoral", "provincia_linea": "Lepe, Huelva", "boletin_source_id": "boja", "resolver_id": "nominatim_municipio_centroid", "DS_NOMB_AMB": null, "geometry_scope": "municipio_centroid_fallback"}, "geometry": {"type": "Point", "coordinates": [-7.201556, 37.2551712]}}, {"type": "Feature", "properties": {"stable_key": "65424715bc6fd5c5710c79f0ce0b9e62d147187f62d54807086f039d0916f5f7", "municipio": "Dueñas", "sector": "S 8", "provincia_linea": "Dueñas (Palencia)", "boletin_source_id": "bocyl", "resolver_id": "nominatim_municipio_centroid", "DS_NOMB_AMB": null, "geometry_scope": "municipio_centroid_fallback"}, "geometry": {"type": "Point", "coordinates": [-4.5462804, 41.87652]}}, {"type": "Feature", "properties": {"stable_key": "75fc54c53dbab2fc6e3f612e7334aa0f5327d514556ec56fd363d0c17613f170", "municipio": "Algemesí", "sector": "Barri del Raval", "provincia_linea": "Algemesí", "boletin_source_id": "dogv", "resolver_id": "nominatim_municipio_centroid", "DS_NOMB_AMB": null, "geometry_scope": "municipio_centroid_fallback"}, "geometry": {"type": "Point", "coordinates": [-0.4357471, 39.190758]}}, {"type": "Feature", "properties": {"stable_key": "da7118cc079e537f4909a54e7d606b06425d7ebc4b060cf4b018b09010f1f913", "municipio": "Zamora", "sector": "SU-NC E13", "provincia_linea": "Zamora", "boletin_source_id": "bocyl", "resolver_id": "nominatim_municipio_centroid", "DS_NOMB_AMB": null, "geometry_scope": "municipio_centroid_fallback"}, "geometry": {"type": "Point", "coordinates": [-5.942315, 41.6857693]}}, {"type": "Feature", "properties": {"stable_key": "23660e84dc7f7d2e966096dc4200f4eed0ce16af5be452931a0c004085da7671", "municipio": "Monòver", "sector": "Venta de Blai", "provincia_linea": "Monòver", "boletin_source_id": "dogv", "resolver_id": "nominatim_municipio_centroid", "DS_NOMB_AMB": null, "geometry_scope": "municipio_centroid_fallback"}, "geometry": {"type": "Point", "coordinates": [-0.8396316, 38.4387815]}}, {"type": "Feature", "properties": {"stable_key": "45b394375afe943dcacc47e2d95529649975b4b487e6d3192ea53247cd16d89c", "municipio": "Peñaranda de Bracamonte", "sector": "ER extrarradio 1, barrio San Roque", "provincia_linea": "Peñaranda de Bracamonte (Salamanca)", "boletin_source_id": "bocyl", "resolver_id": "nominatim_municipio_centroid", "DS_NOMB_AMB": null, "geometry_scope": "municipio_centroid_fallback"}, "geometry": {"type": "Point", "coordinates": [-5.2006416, 40.9024602]}}, {"type": "Feature", "properties": {"stable_key": "a5b25825ae50e678ee4cd775a90025c594f0933f4e1dbe80d8b7ee9c59bd6288", "municipio": "El Arenal", "sector": "SUNC Unidad Ejecución número 9", "provincia_linea": "El Arenal, Ávila", "boletin_source_id": "bocyl", "resolver_id": "nominatim_municipio_centroid", "DS_NOMB_AMB": null, "geometry_scope": "municipio_centroid_fallback"}, "geometry": {"type": "Point", "coordinates": [-5.0853996, 40.2670677]}}, {"type": "Feature", "properties": {"stable_key": "4368043bb30ef33babe65d8d0d077853cebd205ebd296e2548a9301e5aff6ffb", "municipio": "Mombeltrán", "sector": "SU-5", "provincia_linea": "Mombeltrán, Ávila", "boletin_source_id": "bocyl", "resolver_id": "nominatim_municipio_centroid", "DS_NOMB_AMB": null, "geometry_scope": "municipio_centroid_fallback"}, "geometry": {"type": "Point", "coordinates": [-5.0167649, 40.2594639]}}, {"type": "Feature", "properties": {"stable_key": "01aa3a81ad79fc1ba1a0ae57985e66e59432165ccc951d6cc8d5201eddedaf67", "municipio": "Villanueva de Ávila", "sector": "Almacén agrícola y vivienda para guardés", "provincia_linea": "Villanueva de Ávila, Ávila", "boletin_source_id": "bocyl", "resolver_id": "nominatim_municipio_centroid", "DS_NOMB_AMB": null, "geometry_scope": "municipio_centroid_fallback"}, "geometry": {"type": "Point", "coordinates": [-4.8211749, 40.3799296]}}, {"type": "Feature", "properties": {"stable_key": "ca054c3e21ae80df3f0a7a79fc43768923e8f3c4e49ace72f29f39035c08c1c6", "municipio": "Mombeltrán", "sector": "SU-5", "provincia_linea": "Mombeltrán-Ávila", "boletin_source_id": "bocyl", "resolver_id": "nominatim_municipio_centroid", "DS_NOMB_AMB": null, "geometry_scope": "municipio_centroid_fallback"}, "geometry": {"type": "Point", "coordinates": [-5.0167649, 40.2594639]}}, {"type": "Feature", "properties": {"stable_key": "9f61f64f068c4f9fb09236153d69510ff583c4117dbea2552a20db2c839945be", "municipio": "Alcalà de Xivert", "sector": "Residencial 15", "provincia_linea": "Alcalà de Xivert", "boletin_source_id": "dogv", "resolver_id": "nominatim_municipio_centroid", "DS_NOMB_AMB": null, "geometry_scope": "municipio_centroid_fallback"}, "geometry": {"type": "Point", "coordinates": [0.2252763, 40.3041662]}}, {"type": "Feature", "properties": {"stable_key": "5c6ef3a6d95813e9e9b9f1ba86868d7a6d43746cb15f7232b2cff1f94a2d2104", "municipio": "València", "sector": "barri del Pla", "provincia_linea": "València", "boletin_source_id": "dogv", "resolver_id": "nominatim_municipio_centroid", "DS_NOMB_AMB": null, "geometry_scope": "municipio_centroid_fallback"}, "geometry": {"type": "Point", "coordinates": [-0.3763353, 39.4697065]}}, {"type": "Feature", "properties": {"stable_key": "9c2f4f985eb7f5d711e6a96cc3e2edfbc89a148f26a6aee28007da3228b4caaa", "municipio": "Borriana", "sector": "Camí Grau (NPR-2) SUR-R.4", "provincia_linea": "Borriana", "boletin_source_id": "dogv", "resolver_id": "nominatim_municipio_centroid", "DS_NOMB_AMB": null, "geometry_scope": "municipio_centroid_fallback"}, "geometry": {"type": "Point", "coordinates": [-0.0846321, 39.8876912]}}, {"type": "Feature", "properties": {"stable_key": "db62573b7fcc12da416e75f5fd50d7d85196d0968af9bc3f23e00cc830aa7994", "municipio": "Castrillo del Val", "sector": "Plan Parcial los Tomillares Sector 2, Área 1", "provincia_linea": "Castrillo del Val (Burgos)", "boletin_source_id": "bocyl", "resolver_id": "nominatim_municipio_centroid", "DS_NOMB_AMB": null, "geometry_scope": "municipio_centroid_fallback"}, "geometry": {"type": "Point", "coordinates": [-3.5846841, 42.3140713]}}, {"type": "Feature", "properties": {"stable_key": "a47f7bc2b6fada22fc645fc58237547832f4e4bffd01dd555bd030462a0dc451", "municipio": "Mombeltrán", "sector": "Sector 6", "provincia_linea": "Mombeltrán, Ávila", "boletin_source_id": "bocyl", "resolver_id": "nominatim_municipio_centroid", "DS_NOMB_AMB": null, "geometry_scope": "municipio_centroid_fallback"}, "geometry": {"type": "Point", "coordinates": [-5.0167649, 40.2594639]}}, {"type": "Feature", "properties": {"stable_key": "c082ead9a97cab1096a9608ac2192606bef10df3166c7725fd0b43ea3f6cca37", "municipio": "Benigànim", "sector": "Zona residencial de l'eixample/ensanche", "provincia_linea": "Benigànim, Valencia", "boletin_source_id": "dogv", "resolver_id": "nominatim_municipio_centroid", "DS_NOMB_AMB": null, "geometry_scope": "municipio_centroid_fallback"}, "geometry": {"type": "Point", "coordinates": [-0.4441621, 38.9438844]}}, {"type": "Feature", "properties": {"stable_key": "05c0818a6f768772ad936a37bdab49b58393ac4fc3698fb5dd619c2e24f4a7d1", "municipio": "Asturianos", "sector": "Diseminados 28 y 29, parcela 1463 del polígono 28, Entrepeñas", "provincia_linea": "Asturianos (Zamora)", "boletin_source_id": "bocyl", "resolver_id": "nominatim_municipio_centroid", "DS_NOMB_AMB": null, "geometry_scope": "municipio_centroid_fallback"}, "geometry": {"type": "Point", "coordinates": [-6.4691487, 42.0550673]}}, {"type": "Feature", "properties": {"stable_key": "3a3ff66f8fdce1e9dc26bb18f2a70955be8c9442d5976e0b7765cac456a9ddbc", "municipio": "Cebreros", "sector": "SUNC 23", "provincia_linea": "Cebreros-Ávila", "boletin_source_id": "bocyl", "resolver_id": "nominatim_municipio_centroid", "DS_NOMB_AMB": null, "geometry_scope": "municipio_centroid_fallback"}, "geometry": {"type": "Point", "coordinates": [-4.4651595, 40.4551504]}}, {"type": "Feature", "properties": {"stable_key": "97a2b5b00177e91b5ac52b9c0deba335ade651a5f1aaa811aef43d4ed61e9ff0", "municipio": "Benidorm", "sector": "Avenida de la Vila Joiosa, núm. 44, «Estación de Servicio La Cala»", "provincia_linea": "Benidorm", "boletin_source_id": "dogv", "resolver_id": "nominatim_municipio_centroid", "DS_NOMB_AMB": null, "geometry_scope": "municipio_centroid_fallback"}, "geometry": {"type": "Point", "coordinates": [-0.1290929, 38.5406255]}}, {"type": "Feature", "properties": {"stable_key": "1073a9d5d7a285a04a71dc8b36c9385aa622a143ba8ad1eb9634d173088de85b", "municipio": "Utiel", "sector": "Polígono residencial La Celadilla", "provincia_linea": "Utiel", "boletin_source_id": "dogv", "resolver_id": "nominatim_municipio_centroid", "DS_NOMB_AMB": null, "geometry_scope": "municipio_centroid_fallback"}, "geometry": {"type": "Point", "coordinates": [-1.2051604, 39.5680797]}}, {"type": "Feature", "properties": {"stable_key": "2f16cfa05bb3bf2988ae62efc244c2902f8b7d23664f435c51d5d2d24eaf23e1", "municipio": "Ituero y Lama", "sector": "Instalación de energía solar fotovoltaica para autoconsumo", "provincia_linea": "Ituero y Lama (Segovia)", "boletin_source_id": "bocyl", "resolver_id": "nominatim_municipio_centroid", "DS_NOMB_AMB": null, "geometry_scope": "municipio_centroid_fallback"}, "geometry": {"type": "Point", "coordinates": [-4.377953, 40.8001736]}}, {"type": "Feature", "properties": {"stable_key": "451760acaf9f73aac9002086967a4f8cbfc48a301bc73780046e8a135194d702", "municipio": "Náquera", "sector": "Lloma Llarga", "provincia_linea": "Náquera", "boletin_source_id": "dogv", "resolver_id": "nominatim_municipio_centroid", "DS_NOMB_AMB": null, "geometry_scope": "municipio_centroid_fallback"}, "geometry": {"type": "Point", "coordinates": [-0.4255343, 39.6583957]}}, {"type": "Feature", "properties": {"stable_key": "c48d52ebf457c21fb9cc83d6ee4310c8c1a93ac5a187e86b36a766b5f8ad1cfc", "municipio": "Sorbas", "sector": "Camping Savannah Park Resort", "provincia_linea": "Sorbas (Almería)", "boletin_source_id": "boja", "resolver_id": "nominatim_municipio_centroid", "DS_NOMB_AMB": null, "geometry_scope": "municipio_centroid_fallback"}, "geometry": {"type": "Point", "coordinates": [-2.1239548, 37.098183]}}, {"type": "Feature", "properties": {"stable_key": "6f0f7832c73df4c7fb7122b1e26d40587d729e885192f4c9fa31b280a472909c", "municipio": "El Campello", "sector": "Obras de conexión del saneamiento de las zonas residenciales al norte del casco urbano de El Campello con la EDAR Alacantí Nord", "provincia_linea": "El Campello-Alicante", "boletin_source_id": "dogv", "resolver_id": "nominatim_municipio_centroid", "DS_NOMB_AMB": null, "geometry_scope": "municipio_centroid_fallback"}, "geometry": {"type": "Point", "coordinates": [-0.3983685, 38.427416]}}, {"type": "Feature", "properties": {"stable_key": "323bd3709f838fc6d9c49261ef177b6aad2f9636d4f7099dcc94e7254a5db696", "municipio": "Ontinyent", "sector": "SD4", "provincia_linea": "Ontinyent", "boletin_source_id": "dogv", "resolver_id": "nominatim_municipio_centroid", "DS_NOMB_AMB": null, "geometry_scope": "municipio_centroid_fallback"}, "geometry": {"type": "Point", "coordinates": [-0.6099929, 38.8208523]}}, {"type": "Feature", "properties": {"stable_key": "fc9d0348164a066b9ee5b85b3ab03ea4b462323cd0f4e4012affdc9d197be30a", "municipio": "El Arenal", "sector": "SUNC Unidad Ejecución número 5", "provincia_linea": "El Arenal, Ávila", "boletin_source_id": "bocyl", "resolver_id": "nominatim_municipio_centroid", "DS_NOMB_AMB": null, "geometry_scope": "municipio_centroid_fallback"}, "geometry": {"type": "Point", "coordinates": [-5.0853996, 40.2670677]}}, {"type": "Feature", "properties": {"stable_key": "9c3ce904c69147eeadec6d48d0542bced68952e6054bb092e46183be24774186", "municipio": "Garray", "sector": "SU-NC 03", "provincia_linea": "Garray (Soria)", "boletin_source_id": "bocyl", "resolver_id": "nominatim_municipio_centroid", "DS_NOMB_AMB": null, "geometry_scope": "municipio_centroid_fallback"}, "geometry": {"type": "Point", "coordinates": [-2.4460875, 41.8150617]}}, {"type": "Feature", "properties": {"stable_key": "16e6d24b68617bf2f66d191550e565f9b7dadb77284b57e5a664cc4af28d8e7f", "municipio": "Segovia", "sector": "Ampliación del Complejo Asistencial y Educativo de Segovia", "provincia_linea": "Segovia", "boletin_source_id": "bocyl", "resolver_id": "nominatim_municipio_centroid", "DS_NOMB_AMB": null, "geometry_scope": "municipio_centroid_fallback"}, "geometry": {"type": "Point", "coordinates": [-4.1172101, 40.9481192]}}, {"type": "Feature", "properties": {"stable_key": "3439810290aedd6671cdb235c297821bdfaf158004396bb0bc0f9c0e26d3241a", "municipio": "Peñafiel", "sector": "SUNC-13", "provincia_linea": "Peñafiel (Valladolid)", "boletin_source_id": "bocyl", "resolver_id": "nominatim_municipio_centroid", "DS_NOMB_AMB": null, "geometry_scope": "municipio_centroid_fallback"}, "geometry": {"type": "Point", "coordinates": [-4.1215713, 41.5966366]}}, {"type": "Feature", "properties": {"stable_key": "40a6fa84ceaeced0d2152a154210fee8962b2d5621d6190eef169de312b535d4", "municipio": "Güímar", "sector": "Sector Sur 1 Los Pasitos", "provincia_linea": "Güímar", "boletin_source_id": "boc_canarias", "resolver_id": "nominatim_municipio_centroid", "DS_NOMB_AMB": null, "geometry_scope": "municipio_centroid_fallback"}, "geometry": {"type": "Point", "coordinates": [-16.4099501, 28.3150189]}}, {"type": "Feature", "properties": {"stable_key": "569c19061be5e2e67d7e2f8e1a5d552801a52dd2b329dd064ff79532cf6e0b61", "municipio": "Puntallana", "sector": "Llano Amador", "provincia_linea": "Puntallana", "boletin_source_id": "boc_canarias", "resolver_id": "nominatim_municipio_centroid", "DS_NOMB_AMB": null, "geometry_scope": "municipio_centroid_fallback"}, "geometry": {"type": "Point", "coordinates": [-17.7834207, 28.7437853]}}, {"type": "Feature", "properties": {"stable_key": "c735c82cdfbf265c56a1696315da4288ec36035c9ddd35a2c188c9b63ef4ea1b", "municipio": "Alcalà de Xivert", "sector": "R-25", "provincia_linea": "Alcalà de Xivert", "boletin_source_id": "dogv", "resolver_id": "nominatim_municipio_centroid", "DS_NOMB_AMB": null, "geometry_scope": "municipio_centroid_fallback"}, "geometry": {"type": "Point", "coordinates": [0.2252763, 40.3041662]}}, {"type": "Feature", "properties": {"stable_key": "f4e7c836a2687790fb40359c237df044b466e889052c3813d4f8c33e7c86b279", "municipio": "Pelabravo", "sector": "UBZ-2", "provincia_linea": "Pelabravo-Salamanca", "boletin_source_id": "bocyl", "resolver_id": "nominatim_municipio_centroid", "DS_NOMB_AMB": null, "geometry_scope": "municipio_centroid_fallback"}, "geometry": {"type": "Point", "coordinates": [-5.5790972, 40.9366792]}}, {"type": "Feature", "properties": {"stable_key": "9384563be5f51f6b4d72fcadea6970889d6693601594a6d773ada42d0ae18df2", "municipio": "Ontinyent", "sector": "Centro Histórico «La Vila»", "provincia_linea": "Ontinyent-Valencia", "boletin_source_id": "dogv", "resolver_id": "nominatim_municipio_centroid", "DS_NOMB_AMB": null, "geometry_scope": "municipio_centroid_fallback"}, "geometry": {"type": "Point", "coordinates": [-0.6099929, 38.8208523]}}, {"type": "Feature", "properties": {"stable_key": "d7be01b661b58e038ca584873dc0a739dc85d3dca369f37b1029bf25628067c4", "municipio": "Peñaranda de Bracamonte", "sector": "ER extrarradio 116, Sector SUNC R-4", "provincia_linea": "Peñaranda de Bracamonte (Salamanca)", "boletin_source_id": "bocyl", "resolver_id": "nominatim_municipio_centroid", "DS_NOMB_AMB": null, "geometry_scope": "municipio_centroid_fallback"}, "geometry": {"type": "Point", "coordinates": [-5.2006416, 40.9024602]}}, {"type": "Feature", "properties": {"stable_key": "9144de34c13161a5ed6c85063e261a07bd277f23a1d95a42174a264576cdb0bd", "municipio": "Villadangos del Páramo", "sector": "Centro logístico", "provincia_linea": "Villadangos del Páramo (León)", "boletin_source_id": "bocyl", "resolver_id": "nominatim_municipio_centroid", "DS_NOMB_AMB": null, "geometry_scope": "municipio_centroid_fallback"}, "geometry": {"type": "Point", "coordinates": [-5.7668042, 42.5172921]}}, {"type": "Feature", "properties": {"stable_key": "435ab34ee67c1f037c19a7b50a7a0c6d82a96aaf15ffa30370b03bcf8ba4f3a3", "municipio": "Simancas", "sector": "Sector U3", "provincia_linea": "Simancas (Valladolid)", "boletin_source_id": "bocyl", "resolver_id": "nominatim_municipio_centroid", "DS_NOMB_AMB": null, "geometry_scope": "municipio_centroid_fallback"}, "geometry": {"type": "Point", "coordinates": [-4.8268115, 41.5902895]}}, {"type": "Feature", "properties": {"stable_key": "167b212464e8ae8304f3f05d0a9f9b39682bc4c086f37c0ddaa89c6be6d01c99", "municipio": "Aldeatejada", "sector": "Residencial mixto C1. Plan Parcial del Sector Ur-1M-2M-3M-4M «Mixto»", "provincia_linea": "Aldeatejada (Salamanca)", "boletin_source_id": "bocyl", "resolver_id": "nominatim_municipio_centroid", "DS_NOMB_AMB": null, "geometry_scope": "municipio_centroid_fallback"}, "geometry": {"type": "Point", "coordinates": [-5.7212275, 40.907751]}}, {"type": "Feature", "properties": {"stable_key": "4f5f050d1d984b1c2408b7070b25dc153f710a434d336d248bfd6ede64453ec0", "municipio": "Arrecife", "sector": "Los Geranios", "provincia_linea": "Arrecife", "boletin_source_id": "boc_canarias", "resolver_id": "nominatim_municipio_centroid", "DS_NOMB_AMB": null, "geometry_scope": "municipio_centroid_fallback"}, "geometry": {"type": "Point", "coordinates": [-13.5499014, 28.9639681]}}, {"type": "Feature", "properties": {"stable_key": "d82387d2a67daf89e48e3ec29b3cb9d6d3bcc3fce644cd13af2751d609e605ec", "municipio": "Cardeñajimeno", "sector": "Sector 5: Zona urbanizable residencial «Sur» (SUB 5)", "provincia_linea": "Cardeñajimeno-Burgos", "boletin_source_id": "bocyl", "resolver_id": "nominatim_municipio_centroid", "DS_NOMB_AMB": null, "geometry_scope": "municipio_centroid_fallback"}, "geometry": {"type": "Point", "coordinates": [-3.6208379, 42.3303559]}}, {"type": "Feature", "properties": {"stable_key": "4c081cd43a348c9cdf81b69b9e9e8101ee3ddab48bc05692221d1e331006313d", "municipio": "Peligros", "sector": "R-5 Residencial San Agustín", "provincia_linea": "Peligros, Granada", "boletin_source_id": "boja", "resolver_id": "nominatim_municipio_centroid", "DS_NOMB_AMB": null, "geometry_scope": "municipio_centroid_fallback"}, "geometry": {"type": "Point", "coordinates": [-3.6279744, 37.2306631]}}, {"type": "Feature", "properties": {"stable_key": "30e66abac2c84d04ba610f8dcfbce8c9453f931babcf647112976cffae0bbcab", "municipio": "El Puig de Santa Maria", "sector": "illa P-20 del área de ordenanza C-17, residencial Ronda Nord", "provincia_linea": "El Puig de Santa Maria", "boletin_source_id": "dogv", "resolver_id": "nominatim_municipio_centroid", "DS_NOMB_AMB": null, "geometry_scope": "municipio_centroid_fallback"}, "geometry": {"type": "Point", "coordinates": [-0.3062566, 39.5887818]}}, {"type": "Feature", "properties": {"stable_key": "690f1e92f28f04d0d2dfc7a47c6bf7f670878f19a6663c1e1489f8c9b2e8eaab", "municipio": "Lepe", "sector": "Bella Recinto Sur", "provincia_linea": "Lepe, Huelva", "boletin_source_id": "boja", "resolver_id": "nominatim_municipio_centroid", "DS_NOMB_AMB": null, "geometry_scope": "municipio_centroid_fallback"}, "geometry": {"type": "Point", "coordinates": [-7.201556, 37.2551712]}}, {"type": "Feature", "properties": {"stable_key": "3afbce4303f1fd121eb4eff14dcdb3ee39302e4f36c5d7abc3f7eea56bd42df7", "municipio": "Burgos", "sector": "A3 (Sector V-1 Villímar)", "provincia_linea": "Burgos", "boletin_source_id": "bocyl", "resolver_id": "nominatim_municipio_centroid", "DS_NOMB_AMB": null, "geometry_scope": "municipio_centroid_fallback"}, "geometry": {"type": "Point", "coordinates": [-3.6812477, 42.3448498]}}, {"type": "Feature", "properties": {"stable_key": "0d0f302e13d9579b575ea17db4fc104c8f6a2112a5a10c16c9f2319d04954b2f", "municipio": "Añora", "sector": "ARI 10 Residencial", "provincia_linea": "Añora/Córdoba", "boletin_source_id": "boja", "resolver_id": "nominatim_municipio_centroid", "DS_NOMB_AMB": null, "geometry_scope": "municipio_centroid_fallback"}, "geometry": {"type": "Point", "coordinates": [-4.8668412, 38.3232824]}}, {"type": "Feature", "properties": {"stable_key": "ea1b02594f273c070a501c7dc72821da3d6844033e946cfb8bacc4d14c432e15", "municipio": "León", "sector": "Ampliación del Parque Tecnológico de León", "provincia_linea": "León, León", "boletin_source_id": "bocyl", "resolver_id": "nominatim_municipio_centroid", "DS_NOMB_AMB": null, "geometry_scope": "municipio_centroid_fallback"}, "geometry": {"type": "Point", "coordinates": [-5.5616416, 42.5934528]}}, {"type": "Feature", "properties": {"stable_key": "af034e15db8cb4a111e573c8069a63d8a000556b4053bfb206c18af686f0388d", "municipio": "Cidones", "sector": "Ocenilla", "provincia_linea": "Cidones, Soria", "boletin_source_id": "bocyl", "resolver_id": "nominatim_municipio_centroid", "DS_NOMB_AMB": null, "geometry_scope": "municipio_centroid_fallback"}, "geometry": {"type": "Point", "coordinates": [-2.6405915, 41.8150609]}}, {"type": "Feature", "properties": {"stable_key": "8567a43dec8790c72d0d6d81a9b752f77bbe32ea04d7d17f957c11f8ad4fe0e7", "municipio": "Zaratán", "sector": "S-04 «Los Arrieros»", "provincia_linea": "Zaratán/Valladolid", "boletin_source_id": "bocyl", "resolver_id": "nominatim_municipio_centroid", "DS_NOMB_AMB": null, "geometry_scope": "municipio_centroid_fallback"}, "geometry": {"type": "Point", "coordinates": [-4.7958137, 41.6540683]}}, {"type": "Feature", "properties": {"stable_key": "c0de9fc2ba2d4c66b3c4582f2e9cd71e6c0edbe729e1051ddd3d949606d2e0f6", "municipio": "València", "sector": "Habitatges del barri obrer Ramón de Castro", "provincia_linea": "València", "boletin_source_id": "dogv", "resolver_id": "nominatim_municipio_centroid", "DS_NOMB_AMB": null, "geometry_scope": "municipio_centroid_fallback"}, "geometry": {"type": "Point", "coordinates": [-0.3763353, 39.4697065]}}, {"type": "Feature", "properties": {"stable_key": "01aa8b0cc7b2820d69b38f6ea9dbe81a41ac31775270584913a8ca47fe687df8", "municipio": "Villadangos del Páramo", "sector": "Ampliación del Polígono Industrial de Villadangos del Páramo", "provincia_linea": "Villadangos del Páramo, León", "boletin_source_id": "bocyl", "resolver_id": "nominatim_municipio_centroid", "DS_NOMB_AMB": null, "geometry_scope": "municipio_centroid_fallback"}, "geometry": {"type": "Point", "coordinates": [-5.7668042, 42.5172921]}}, {"type": "Feature", "properties": {"stable_key": "2f60570e4dbf17752bcf30991bc949e85ac88128423016c24633304d4dcada53", "municipio": "La Pobla de Vallbona", "sector": "R-25", "provincia_linea": "La Pobla de Vallbona", "boletin_source_id": "dogv", "resolver_id": "nominatim_municipio_centroid", "DS_NOMB_AMB": null, "geometry_scope": "municipio_centroid_fallback"}, "geometry": {"type": "Point", "coordinates": [-0.5532185, 39.5907339]}}, {"type": "Feature", "properties": {"stable_key": "e21b2756d96b9713cf0bb5061b87c4bb9224604ad84b5d098818f3ee893bc9ec", "municipio": "Cártama", "sector": "Autovía del Guadalhorce (A-357). Tramo: Enlace de Casapalma -Enlace Cerralba", "provincia_linea": "Cártama/Málaga", "boletin_source_id": "boja", "resolver_id": "nominatim_municipio_centroid", "DS_NOMB_AMB": null, "geometry_scope": "municipio_centroid_fallback"}, "geometry": {"type": "Point", "coordinates": [-4.631539, 36.7100716]}}, {"type": "Feature", "properties": {"stable_key": "fe1f5378f5933a0ac9f1023b81f222a9dff891458fa0e084922ebd826d0e8d71", "municipio": "Betxí", "sector": "Peña Negra, polígono 11, parcela 253", "provincia_linea": "Betxí (Castelló)", "boletin_source_id": "dogv", "resolver_id": "nominatim_municipio_centroid", "DS_NOMB_AMB": null, "geometry_scope": "municipio_centroid_fallback"}, "geometry": {"type": "Point", "coordinates": [-0.1974253, 39.9288397]}}, {"type": "Feature", "properties": {"stable_key": "6e51117147689f8c894d1406db9485d6216409291ec43355b01c9e36d04cb2b5", "municipio": "Valencia de Don Juan", "sector": "Viviendas de Camineros, calle Dos de Mayo n.º 1 y 3, y n.º 5 y 7", "provincia_linea": "Valencia de Don Juan (León)", "boletin_source_id": "bocyl", "resolver_id": "nominatim_municipio_centroid", "DS_NOMB_AMB": null, "geometry_scope": "municipio_centroid_fallback"}, "geometry": {"type": "Point", "coordinates": [-5.5188832, 42.2936047]}}, {"type": "Feature", "properties": {"stable_key": "7a1f45c18aa5ee534094de72985e8ce5788cdebebef2d5cbb1191de4260452d7", "municipio": "Coín", "sector": "Acondicionamiento del tramo urbano de Coín en la A-404", "provincia_linea": "Coín, Málaga", "boletin_source_id": "boja", "resolver_id": "nominatim_municipio_centroid", "DS_NOMB_AMB": null, "geometry_scope": "municipio_centroid_fallback"}, "geometry": {"type": "Point", "coordinates": [-4.7565615, 36.6600506]}}, {"type": "Feature", "properties": {"stable_key": "1c5c1952beb86a988c1f5aa002be903f3e01210b58246ebc046437b81f2200fa", "municipio": "Jaén", "sector": "Mejora de seguridad vial de la carretera A-311. Tramo: P.k. 27+400 al p.k. final (35+424), tt.mm. Lahiguera y Andújar", "provincia_linea": "Jaén", "boletin_source_id": "boja", "resolver_id": "nominatim_municipio_centroid", "DS_NOMB_AMB": null, "geometry_scope": "municipio_centroid_fallback"}, "geometry": {"type": "Point", "coordinates": [-3.7883289, 37.7728858]}}, {"type": "Feature", "properties": {"stable_key": "122732438f8ab9848fcd6416c43a0bd7242c0628009ed163fc5c7b34b7211d88", "municipio": "Coín", "sector": "Acondicionamiento del tramo urbano de Coín en la carretera A-404. Málaga", "provincia_linea": "Coín/Málaga", "boletin_source_id": "boja", "resolver_id": "nominatim_municipio_centroid", "DS_NOMB_AMB": null, "geometry_scope": "municipio_centroid_fallback"}, "geometry": {"type": "Point", "coordinates": [-4.7565615, 36.6600506]}}, {"type": "Feature", "properties": {"stable_key": "f813b2bda08c3b7dfde706a49d76a664cef2ae0a641685046be263db15b896f5", "municipio": "Ledesma", "sector": "SNC-3", "provincia_linea": "Ledesma (Salamanca)", "boletin_source_id": "bocyl", "resolver_id": "nominatim_municipio_centroid", "DS_NOMB_AMB": null, "geometry_scope": "municipio_centroid_fallback"}, "geometry": {"type": "Point", "coordinates": [-5.9987649, 41.0903872]}}, {"type": "Feature", "properties": {"stable_key": "7b9764a3ecce48f27fa01ee05e76dd67230cb1deaf157365089d0225f1d55d0e", "municipio": "Mijas", "sector": "Acondicionamiento de la carretera A-7053. Tramo: Puerto de los Pescadores–Entrerríos", "provincia_linea": "Mijas-Málaga", "boletin_source_id": "boja", "resolver_id": "nominatim_municipio_centroid", "DS_NOMB_AMB": null, "geometry_scope": "municipio_centroid_fallback"}, "geometry": {"type": "Point", "coordinates": [-4.6950428, 36.5557539]}}, {"type": "Feature", "properties": {"stable_key": "edcc75f787c3604e182bc440d82b22ab05e25f9acbe53e1db1eabb4465facdc1", "municipio": "Alhaurín el Grande", "sector": "Acondicionamiento de la carretera A-387. Tramo: Alhaurín el Grande- Puerto de los Pescadores", "provincia_linea": "Alhaurín el Grande/Málaga", "boletin_source_id": "boja", "resolver_id": "nominatim_municipio_centroid", "DS_NOMB_AMB": null, "geometry_scope": "municipio_centroid_fallback"}, "geometry": {"type": "Point", "coordinates": [-4.6867447, 36.6421248]}}, {"type": "Feature", "properties": {"stable_key": "a21456a4b54066d00de967126b13736c0933aa18352770fce4b85e7d4c476f82", "municipio": "Pilar de la Horadada", "sector": "Red de Oficinas de Vivienda, Rehabilitación y Regeneración Urbana (Xarxa XALOC)", "provincia_linea": "Pilar de la Horadada", "boletin_source_id": "dogv", "resolver_id": "nominatim_municipio_centroid", "DS_NOMB_AMB": null, "geometry_scope": "municipio_centroid_fallback"}, "geometry": {"type": "Point", "coordinates": [-0.8257645, 37.8994714]}}, {"type": "Feature", "properties": {"stable_key": "73b6362ca1273af74f46f7242ad322bf31dd4482d7dc37dbfa06df8e92d3bcd0", "municipio": "Arcenillas", "sector": "Instalaciones de productos cárnicos de ovino", "provincia_linea": "Arcenillas, Zamora", "boletin_source_id": "bocyl", "resolver_id": "nominatim_municipio_centroid", "DS_NOMB_AMB": null, "geometry_scope": "municipio_centroid_fallback"}, "geometry": {"type": "Point", "coordinates": [-5.6857564, 41.4561135]}}, {"type": "Feature", "properties": {"stable_key": "f448a7358dfb07085bad04a7f787995148833a0399ba9d58898b9a0366474007", "municipio": "Mijas", "sector": "Acondicionamiento de la carretera A-387. Tramo: Alhaurín el Grande-Puerto de los Pescadores", "provincia_linea": "Mijas/Málaga", "boletin_source_id": "boja", "resolver_id": "nominatim_municipio_centroid", "DS_NOMB_AMB": null, "geometry_scope": "municipio_centroid_fallback"}, "geometry": {"type": "Point", "coordinates": [-4.6950428, 36.5557539]}}, {"type": "Feature", "properties": {"stable_key": "95c1993077010cffe97ebc1c56c987fcdf1bb2aa2f6890e75f2f682b4443b405", "municipio": "Sierra de Yeguas", "sector": "acondicionamiento de la carretera A-365. Tramo: A-92 (La Roda de Andalucía a Sierra de Yeguas)", "provincia_linea": "Sierra de Yeguas/Málaga", "boletin_source_id": "boja", "resolver_id": "nominatim_municipio_centroid", "DS_NOMB_AMB": null, "geometry_scope": "municipio_centroid_fallback"}, "geometry": {"type": "Point", "coordinates": [-4.8685644, 37.1243923]}}, {"type": "Feature", "properties": {"stable_key": "5b68793e8c32f5c7a427f0118d4fa23f28cd7c268373ff287f67f54b436d597f", "municipio": "El Coronil", "sector": "Sector Residencial R-8 «Las Margaritas»", "provincia_linea": "El Coronil (Sevilla)", "boletin_source_id": "boja", "resolver_id": "nominatim_municipio_centroid", "DS_NOMB_AMB": null, "geometry_scope": "municipio_centroid_fallback"}, "geometry": {"type": "Point", "coordinates": [-5.6329514, 37.0796909]}}, {"type": "Feature", "properties": {"stable_key": "fa7bb99da0495638c61647feedd790609ec87013672980329894ebcb1e1c5f0b", "municipio": "Sagunto", "sector": "Xarxa d’Oficines d’Habitatge, Rehabilitació i Regeneració Urbana (Xarxa XALOC)", "provincia_linea": "Sagunto", "boletin_source_id": "dogv", "resolver_id": "nominatim_municipio_centroid", "DS_NOMB_AMB": null, "geometry_scope": "municipio_centroid_fallback"}, "geometry": {"type": "Point", "coordinates": [-0.2786451, 39.6792916]}}, {"type": "Feature", "properties": {"stable_key": "5523fe608fd4d9bf74344fe510aed91f43ba243efc40e956fd13b087d761923c", "municipio": "Lliria", "sector": "Red de Oficinas de Vivienda, Rehabilitación y Regeneración Urbana (Xarxa XALOC)", "provincia_linea": "Lliria", "boletin_source_id": "dogv", "resolver_id": "nominatim_municipio_centroid", "DS_NOMB_AMB": null, "geometry_scope": "municipio_centroid_fallback"}, "geometry": {"type": "Point", "coordinates": [-0.5952749, 39.6251478]}}, {"type": "Feature", "properties": {"stable_key": "f1e1301a894b2f65d652d376113d02986be4707e9deee63aa8d01a016f6da2a4", "municipio": "Torrent", "sector": "Xarxa d’Oficines d’Habitatge, Rehabilitació i Regeneració Urbana (Xarxa XALOC)", "provincia_linea": "Torrent", "boletin_source_id": "dogv", "resolver_id": "nominatim_municipio_centroid", "DS_NOMB_AMB": null, "geometry_scope": "municipio_centroid_fallback"}, "geometry": {"type": "Point", "coordinates": [-0.4656213, 39.436668]}}, {"type": "Feature", "properties": {"stable_key": "fe81b1fb3a104c2a4526b0c03490d3f21df02907257e4b72ba30a2bafe6da5fd", "municipio": "Granada", "sector": "Acondicionamiento de la A-348 desde la N-323 a Lanjarón. Tramo: Tablate-p.k. 3+800", "provincia_linea": "Granada", "boletin_source_id": "boja", "resolver_id": "nominatim_municipio_centroid", "DS_NOMB_AMB": null, "geometry_scope": "municipio_centroid_fallback"}, "geometry": {"type": "Point", "coordinates": [-3.5995337, 37.1734995]}}, {"type": "Feature", "properties": {"stable_key": "45048e824ad7e5daff32de58b83b2fad4ac1bbd2baa981a39f90ead5263e4cbf", "municipio": "Coín", "sector": "Acondicionamiento del tramo urbano de Coín en la carretera A-404.Málaga", "provincia_linea": "Coín/Málaga", "boletin_source_id": "boja", "resolver_id": "nominatim_municipio_centroid", "DS_NOMB_AMB": null, "geometry_scope": "municipio_centroid_fallback"}, "geometry": {"type": "Point", "coordinates": [-4.7565615, 36.6600506]}}, {"type": "Feature", "properties": {"stable_key": "f828b1d026deadae7abf0ea1bae26b91368eda92a8a743a62e7f67bdda5b85c6", "municipio": "Sevilla", "sector": "Línea 3 Metro de Sevilla", "provincia_linea": "Sevilla", "boletin_source_id": "boja", "resolver_id": "nominatim_municipio_centroid", "DS_NOMB_AMB": null, "geometry_scope": "municipio_centroid_fallback"}, "geometry": {"type": "Point", "coordinates": [-5.9953403, 37.3886303]}}, {"type": "Feature", "properties": {"stable_key": "2f4214abe72e2f319370ed36e3b2d0f13ab2b8d02576d91df05550f051ae2b36", "municipio": "Pozoblanco", "sector": "Variante Noroeste de Pozoblanco entre las carreteras A-3177 y A-423. Fase B", "provincia_linea": "Pozoblanco, Córdoba", "boletin_source_id": "boja", "resolver_id": "nominatim_municipio_centroid", "DS_NOMB_AMB": null, "geometry_scope": "municipio_centroid_fallback"}, "geometry": {"type": "Point", "coordinates": [-4.848573, 38.3780204]}}, {"type": "Feature", "properties": {"stable_key": "78b87f740365fe9638d3ea20c4bd75794db02a10c6f540bab2472369c13c2435", "municipio": "Onil", "sector": "Polígono residencial norte La Creueta", "provincia_linea": "Onil", "boletin_source_id": "dogv", "resolver_id": "nominatim_municipio_centroid", "DS_NOMB_AMB": null, "geometry_scope": "municipio_centroid_fallback"}, "geometry": {"type": "Point", "coordinates": [-0.6740951, 38.6298061]}}, {"type": "Feature", "properties": {"stable_key": "5d6a8ab242af4e42718c36f65b9d5b0a0c0d648c7c4a7bef816a01f2b6f73ced", "municipio": "Alhaurín el Grande", "sector": "Mejora de la seguridad vial de la carretera A-404, de Coín a Churriana", "provincia_linea": "Alhaurín el Grande/Málaga", "boletin_source_id": "boja", "resolver_id": "nominatim_municipio_centroid", "DS_NOMB_AMB": null, "geometry_scope": "municipio_centroid_fallback"}, "geometry": {"type": "Point", "coordinates": [-4.6867447, 36.6421248]}}, {"type": "Feature", "properties": {"stable_key": "5c8e3b9a971a74de7a0fc9fec78223aacb3933bdc4a885546cb9a76ff76d1eef", "municipio": "València", "sector": "Barri Obrero Ramón de Castro", "provincia_linea": "València", "boletin_source_id": "dogv", "resolver_id": "nominatim_municipio_centroid", "DS_NOMB_AMB": null, "geometry_scope": "municipio_centroid_fallback"}, "geometry": {"type": "Point", "coordinates": [-0.3763353, 39.4697065]}}, {"type": "Feature", "properties": {"stable_key": "defd915960501001c8e1f098ea5776fb5903cf05d53060c63dcf46544858150b", "municipio": "Teba", "sector": "Conexión de la carretera A-367 (desde Venta el Cordobés) con la A-357", "provincia_linea": "Teba/Málaga", "boletin_source_id": "boja", "resolver_id": "nominatim_municipio_centroid", "DS_NOMB_AMB": null, "geometry_scope": "municipio_centroid_fallback"}, "geometry": {"type": "Point", "coordinates": [-4.9202568, 36.9834861]}}, {"type": "Feature", "properties": {"stable_key": "4809fea443a9aa1261d436e59d49fe3c07106ee462f1013375be8ad5cbef1118", "municipio": "Láchar", "sector": "Peñuelas", "provincia_linea": "Láchar (Granada)", "boletin_source_id": "boja", "resolver_id": "nominatim_municipio_centroid", "DS_NOMB_AMB": null, "geometry_scope": "municipio_centroid_fallback"}, "geometry": {"type": "Point", "coordinates": [-3.8439006, 37.1860195]}}, {"type": "Feature", "properties": {"stable_key": "a7f3a92880a3239656c9974551fdbc26093f23a62c242c21a98137587ee70a13", "municipio": "Frómista", "sector": "Ensanche residencial extensivo para las parcelas mínimas de las NSP de Frómista", "provincia_linea": "Frómista-Palencia", "boletin_source_id": "bocyl", "resolver_id": "nominatim_municipio_centroid", "DS_NOMB_AMB": null, "geometry_scope": "municipio_centroid_fallback"}, "geometry": {"type": "Point", "coordinates": [-4.4055039, 42.2676867]}}, {"type": "Feature", "properties": {"stable_key": "847ff3cd155b25ebabd23e719debb130ec292551cca4e7f74272d52e8a389265", "municipio": "Fuente Palmera", "sector": "El Villar", "provincia_linea": "Fuente Palmera, Córdoba", "boletin_source_id": "boja", "resolver_id": "nominatim_municipio_centroid", "DS_NOMB_AMB": null, "geometry_scope": "municipio_centroid_fallback"}, "geometry": {"type": "Point", "coordinates": [-5.099948, 37.7049553]}}, {"type": "Feature", "properties": {"stable_key": "aa6a2afd7b1af451573f986faf597e195fbb7b9b87b25f0a08cf74308e77ef9a", "municipio": "Coín", "sector": "Acondicionamiento de la carretera MA-3303. Tramo: Coín- Puerto de los Pescadores", "provincia_linea": "Coín-Málaga", "boletin_source_id": "boja", "resolver_id": "nominatim_municipio_centroid", "DS_NOMB_AMB": null, "geometry_scope": "municipio_centroid_fallback"}, "geometry": {"type": "Point", "coordinates": [-4.7565615, 36.6600506]}}, {"type": "Feature", "properties": {"stable_key": "d208df3503e20d5ce165d2453a9802282e1fa56d3e7692eca45263116a571554", "municipio": "Ontinyent", "sector": "Llombo i Germanies", "provincia_linea": "Ontinyent", "boletin_source_id": "dogv", "resolver_id": "nominatim_municipio_centroid", "DS_NOMB_AMB": null, "geometry_scope": "municipio_centroid_fallback"}, "geometry": {"type": "Point", "coordinates": [-0.6099929, 38.8208523]}}, {"type": "Feature", "properties": {"stable_key": "6e42f3bd75031abdb8888e0dd7042d14ce54654f5553c689363ddcfa12d89667", "municipio": "Aldeatejada", "sector": "PP Sector Ur-1M-2M-3M-4M «Mixto»", "provincia_linea": "Aldeatejada-Salamanca", "boletin_source_id": "bocyl", "resolver_id": "nominatim_municipio_centroid", "DS_NOMB_AMB": null, "geometry_scope": "municipio_centroid_fallback"}, "geometry": {"type": "Point", "coordinates": [-5.7212275, 40.907751]}}, {"type": "Feature", "properties": {"stable_key": "483605a5d25dac3802de26e54159ab9bfd9b9e03663ef6c8c7cda87e38dbe519", "municipio": "Júzcar", "sector": "UE-4", "provincia_linea": "Júzcar-Málaga", "boletin_source_id": "boja", "resolver_id": "nominatim_municipio_centroid", "DS_NOMB_AMB": null, "geometry_scope": "municipio_centroid_fallback"}, "geometry": {"type": "Point", "coordinates": [-5.1708129, 36.6255785]}}, {"type": "Feature", "properties": {"stable_key": "5cff04ab89a16ab662ce20741b208b2b5a75e627b6713c57f303b8b82024ab03", "municipio": "Burgos", "sector": "APA S-29.07", "provincia_linea": "Burgos", "boletin_source_id": "bocyl", "resolver_id": "nominatim_municipio_centroid", "DS_NOMB_AMB": null, "geometry_scope": "municipio_centroid_fallback"}, "geometry": {"type": "Point", "coordinates": [-3.6812477, 42.3448498]}}, {"type": "Feature", "properties": {"stable_key": "d1836e4dcc454bfe2ed113035e1092a42a146b0919b77fa9d183e92f0bc926d0", "municipio": "La Fregeneda", "sector": "CS Valdenoguera", "provincia_linea": "La Fregeneda (Salamanca)", "boletin_source_id": "bocyl", "resolver_id": "nominatim_municipio_centroid", "DS_NOMB_AMB": null, "geometry_scope": "municipio_centroid_fallback"}, "geometry": {"type": "Point", "coordinates": [-6.8661515, 40.9891609]}}, {"type": "Feature", "properties": {"stable_key": "d155b56308fa80942857e141e9f2e286ab9b8da9cfa342c39eddfba1e1627f7b", "municipio": "San Juan de Aznalfarache", "sector": "Sector 2", "provincia_linea": "San Juan de Aznalfarache, Sevilla", "boletin_source_id": "boja", "resolver_id": "nominatim_municipio_centroid", "DS_NOMB_AMB": null, "geometry_scope": "municipio_centroid_fallback"}, "geometry": {"type": "Point", "coordinates": [-6.03286, 37.3599507]}}, {"type": "Feature", "properties": {"stable_key": "afb6c6ab0176f513d2b982235479ddb016b9a8575d7543c8da2a3657067ba778", "municipio": "Olombrada", "sector": "Calificación Zona 4 Residencial Aislada-Pareada", "provincia_linea": "Olombrada-Segovia", "boletin_source_id": "bocyl", "resolver_id": "nominatim_municipio_centroid", "DS_NOMB_AMB": null, "geometry_scope": "municipio_centroid_fallback"}, "geometry": {"type": "Point", "coordinates": [-4.1601082, 41.4155608]}}, {"type": "Feature", "properties": {"stable_key": "fe394acf47e0d83974999c57b2d923749f2158c84aa1619b33de4c7333542818", "municipio": "Picanya", "sector": "Red de Oficinas de Vivienda, Rehabilitación y Regeneración Urbana (Xarxa XALOC)", "provincia_linea": "Picanya", "boletin_source_id": "dogv", "resolver_id": "nominatim_municipio_centroid", "DS_NOMB_AMB": null, "geometry_scope": "municipio_centroid_fallback"}, "geometry": {"type": "Point", "coordinates": [-0.4358777, 39.4353965]}}, {"type": "Feature", "properties": {"stable_key": "7db37e53bbe10520b7432c5e180d6f97aec1ce61c5a7e31464dc5fd906efbf87", "municipio": "Elx", "sector": "Xarxa d’Oficines d’Habitatge, Rehabilitació i Regeneració Urbana (Xarxa XALOC)", "provincia_linea": "Elche", "boletin_source_id": "dogv", "resolver_id": "nominatim_municipio_centroid", "DS_NOMB_AMB": null, "geometry_scope": "municipio_centroid_fallback"}, "geometry": {"type": "Point", "coordinates": [-0.6988391, 38.2653307]}}, {"type": "Feature", "properties": {"stable_key": "0a99d1bfc24384a493b742a3d8bdb39bd6b10e7446a1b61a9c4a8ea96e713eea", "municipio": "Pelabravo", "sector": "UUR-7", "provincia_linea": "Pelabravo (Salamanca)", "boletin_source_id": "bocyl", "resolver_id": "nominatim_municipio_centroid", "DS_NOMB_AMB": null, "geometry_scope": "municipio_centroid_fallback"}, "geometry": {"type": "Point", "coordinates": [-5.5790972, 40.9366792]}}, {"type": "Feature", "properties": {"stable_key": "53f75dbd368906b0570d4b70f90e12a154bbb57e7942b34a8cb4aa9a1efbba16", "municipio": "Alhaurín de la Torre", "sector": "Variante de Alhaurín de la Torre en la carretera C-344", "provincia_linea": "Alhaurín de la Torre/Málaga", "boletin_source_id": "boja", "resolver_id": "nominatim_municipio_centroid", "DS_NOMB_AMB": null, "geometry_scope": "municipio_centroid_fallback"}, "geometry": {"type": "Point", "coordinates": [-4.562753, 36.6627542]}}, {"type": "Feature", "properties": {"stable_key": "8bea70f48bffa5ab6762f31a3a8b0bdfda0a9dfa56d2fd26b62c98ec02b2df1c", "municipio": "Chiva", "sector": "Urbanización Residencial la Loma", "provincia_linea": "Chiva", "boletin_source_id": "dogv", "resolver_id": "nominatim_municipio_centroid", "DS_NOMB_AMB": null, "geometry_scope": "municipio_centroid_fallback"}, "geometry": {"type": "Point", "coordinates": [-0.7178348, 39.4726098]}}, {"type": "Feature", "properties": {"stable_key": "36f61ca9b271dc0e6abdbde4b6797ccfae790f94563658a2682b487bbca882e7", "municipio": "Lepe", "sector": "Bella Recinto Sur", "provincia_linea": "Lepe", "boletin_source_id": "boja", "resolver_id": "nominatim_municipio_centroid", "DS_NOMB_AMB": null, "geometry_scope": "municipio_centroid_fallback"}, "geometry": {"type": "Point", "coordinates": [-7.201556, 37.2551712]}}, {"type": "Feature", "properties": {"stable_key": "4c22b5847c0381becda53cbe9a7e16f7559069b377ba16449442be79930c3c20", "municipio": "Alhaurín el Grande", "sector": "Acondicionamiento de la carretera A-357. Tramo: Alhaurín el Grande - Puerto de los Pescadores", "provincia_linea": "Alhaurín el Grande/Málaga", "boletin_source_id": "boja", "resolver_id": "nominatim_municipio_centroid", "DS_NOMB_AMB": null, "geometry_scope": "municipio_centroid_fallback"}, "geometry": {"type": "Point", "coordinates": [-4.6867447, 36.6421248]}}, {"type": "Feature", "properties": {"stable_key": "5fe99242485a880674c2f562865f6eb357af3f143fb83e7fb9ca8b95c96e5c48", "municipio": "La Pobla de Vallbona", "sector": "R-18", "provincia_linea": "La Pobla de Vallbona", "boletin_source_id": "dogv", "resolver_id": "nominatim_municipio_centroid", "DS_NOMB_AMB": null, "geometry_scope": "municipio_centroid_fallback"}, "geometry": {"type": "Point", "coordinates": [-0.5532185, 39.5907339]}}, {"type": "Feature", "properties": {"stable_key": "59de724c61af4476e30768caf26a42fcaa46fdb78878235475c103c199b58b4e", "municipio": "Santa Cruz de Tenerife", "sector": "Polígonos de La Gallega y El Rosario", "provincia_linea": "Santa Cruz de Tenerife", "boletin_source_id": "boc_canarias", "resolver_id": "nominatim_municipio_centroid", "DS_NOMB_AMB": null, "geometry_scope": "municipio_centroid_fallback"}, "geometry": {"type": "Point", "coordinates": [-16.2507843, 28.467178]}}, {"type": "Feature", "properties": {"stable_key": "ad9a7012ba1137e6b838bfa7750c8186ef68aaa3ae9f59acf9ceb5397d8100fd", "municipio": "Villafranca de Córdoba", "sector": "SUO Industrial PP I-8", "provincia_linea": "Villafranca de Córdoba, Córdoba", "boletin_source_id": "boja", "resolver_id": "nominatim_municipio_centroid", "DS_NOMB_AMB": null, "geometry_scope": "municipio_centroid_fallback"}, "geometry": {"type": "Point", "coordinates": [-4.5533602, 37.9504753]}}, {"type": "Feature", "properties": {"stable_key": "f8d0dae739a885dd0091111d59ce0f738578948e0ff60da931bf1902a9e110b2", "municipio": "El Puig de Santa Maria", "sector": "La Casota", "provincia_linea": "El Puig de Santa Maria", "boletin_source_id": "dogv", "resolver_id": "nominatim_municipio_centroid", "DS_NOMB_AMB": null, "geometry_scope": "municipio_centroid_fallback"}, "geometry": {"type": "Point", "coordinates": [-0.3062566, 39.5887818]}}, {"type": "Feature", "properties": {"stable_key": "3e89380316c8aceaf0fde57dd9d1bac943912a4872506e739a663795457489a9", "municipio": "Albuñol", "sector": "SUNC-ARI-02 y el SL-EL-13", "provincia_linea": "Albuñol (Granada)", "boletin_source_id": "boja", "resolver_id": "nominatim_municipio_centroid", "DS_NOMB_AMB": null, "geometry_scope": "municipio_centroid_fallback"}, "geometry": {"type": "Point", "coordinates": [-3.188296, 36.7895221]}}, {"type": "Feature", "properties": {"stable_key": "7bd60c99135a7fedf2f393b5c08e7b9fbd7d844533a73ae52216c452ea492407", "municipio": "Los Balbases", "sector": "Parcelas 5165, 25256 del polígono 512 y Cr. Peral de Arlanza n.º 23", "provincia_linea": "Los Balbases-Burgos", "boletin_source_id": "bocyl", "resolver_id": "nominatim_municipio_centroid", "DS_NOMB_AMB": null, "geometry_scope": "municipio_centroid_fallback"}, "geometry": {"type": "Point", "coordinates": [-4.0633841, 42.2147696]}}, {"type": "Feature", "properties": {"stable_key": "c89e8feced465bad846994b4806d98520a510edff840532ac27bf36d59579978", "municipio": "La Rinconada", "sector": "Corrección del error material del Plano de Ordenación Completa de los núcleos urbanos, en su hoja D-5 de la calle Pitágoras núm. 3 y traseras", "provincia_linea": "La Rinconada (Sevilla)", "boletin_source_id": "boja", "resolver_id": "nominatim_municipio_centroid", "DS_NOMB_AMB": null, "geometry_scope": "municipio_centroid_fallback"}, "geometry": {"type": "Point", "coordinates": [-5.9814868, 37.4867198]}}, {"type": "Feature", "properties": {"stable_key": "7faa7286d1e7b0b96f9bb65ff594b93ce61bc9ed72eb0e6052462849dd4edf33", "municipio": "Elda", "sector": "Red de Oficinas de Vivienda, Rehabilitación y Regeneración Urbana (Xarxa XALOC)", "provincia_linea": "Elda", "boletin_source_id": "dogv", "resolver_id": "nominatim_municipio_centroid", "DS_NOMB_AMB": null, "geometry_scope": "municipio_centroid_fallback"}, "geometry": {"type": "Point", "coordinates": [-0.7956759, 38.4789671]}}, {"type": "Feature", "properties": {"stable_key": "5bd396582e4d467f870b12947ff4b82db953ff54c0ac0296ab750a439dfc8f8a", "municipio": "La Roda de Andalucía", "sector": "Sector I-II (2.ª fase del Polígono Industrial Nudo Norte)", "provincia_linea": "La Roda de Andalucía (Sevilla)", "boletin_source_id": "boja", "resolver_id": "nominatim_municipio_centroid", "DS_NOMB_AMB": null, "geometry_scope": "municipio_centroid_fallback"}, "geometry": {"type": "Point", "coordinates": [-4.7772857, 37.2003677]}}, {"type": "Feature", "properties": {"stable_key": "003076d68cbd39c498dbd4cc4cf99041dc14d649c0ab0144104b59c941f5666a", "municipio": "San Antonio de Benagéber", "sector": "TER-2 Colinas-Coll", "provincia_linea": "San Antonio de Benagéber", "boletin_source_id": "dogv", "resolver_id": "nominatim_municipio_centroid", "DS_NOMB_AMB": null, "geometry_scope": "municipio_centroid_fallback"}, "geometry": {"type": "Point", "coordinates": [-0.5001275, 39.5619478]}}, {"type": "Feature", "properties": {"stable_key": "d8e2c4e537db5480d6dc5d74fda615f4725f415d251990d2b4fff1fea3f1e09e", "municipio": "Canals", "sector": "Eixample Carrer del Castell de Montesa", "provincia_linea": "Canals", "boletin_source_id": "dogv", "resolver_id": "nominatim_municipio_centroid", "DS_NOMB_AMB": null, "geometry_scope": "municipio_centroid_fallback"}, "geometry": {"type": "Point", "coordinates": [-0.5832175, 38.9623954]}}, {"type": "Feature", "properties": {"stable_key": "fa6123d3304b740f634bcf052c03716d2468e12fb226fa1c710394254199df6d", "municipio": "Coín", "sector": "Acondicionamiento del tramo urbano de Coín en la carretera A-404.Málaga", "provincia_linea": "Coín-Málaga", "boletin_source_id": "boja", "resolver_id": "nominatim_municipio_centroid", "DS_NOMB_AMB": null, "geometry_scope": "municipio_centroid_fallback"}, "geometry": {"type": "Point", "coordinates": [-4.7565615, 36.6600506]}}, {"type": "Feature", "properties": {"stable_key": "3ac8d8316528e5d887240630f47fb5d9daca04bbc212d158bbbdefe4967ba4e5", "municipio": "Alhaurín el Grande", "sector": "Acondicionamiento de la carretera A-387. Tramo: Alhaurín el Grande-Puerto de los Pescadores", "provincia_linea": "Alhaurín el Grande/Málaga", "boletin_source_id": "boja", "resolver_id": "nominatim_municipio_centroid", "DS_NOMB_AMB": null, "geometry_scope": "municipio_centroid_fallback"}, "geometry": {"type": "Point", "coordinates": [-4.6867447, 36.6421248]}}, {"type": "Feature", "properties": {"stable_key": "2f763b9aeb0f5734306c92527a54eb5cccb472b97bf8fd38f622edf5743fe038", "municipio": "Cártama", "sector": "Nueva carretera entre la variante de Coín y Casapalma. Tramo: de la carretera A-355 a la A-357 (Málaga)", "provincia_linea": "Cártama/Málaga", "boletin_source_id": "boja", "resolver_id": "nominatim_municipio_centroid", "DS_NOMB_AMB": null, "geometry_scope": "municipio_centroid_fallback"}, "geometry": {"type": "Point", "coordinates": [-4.631539, 36.7100716]}}, {"type": "Feature", "properties": {"stable_key": "95ea946fd7e866158d99d2e3760dfa68a15b797ae3388549920ebea6028b24ad", "municipio": "Morella", "sector": "Xarxa d’Oficines d’Habitatge, Rehabilitació i Regeneració Urbana (Xarxa XALOC)", "provincia_linea": "Morella", "boletin_source_id": "dogv", "resolver_id": "nominatim_municipio_centroid", "DS_NOMB_AMB": null, "geometry_scope": "municipio_centroid_fallback"}, "geometry": {"type": "Point", "coordinates": [-0.0998026, 40.6188277]}}, {"type": "Feature", "properties": {"stable_key": "24255a53491ce683542d2f508c163fece82549200952da53ab0e47aa9c960342", "municipio": "Aldeatejada", "sector": "UR-1M-2M-3M-4M", "provincia_linea": "Aldeatejada (Salamanca)", "boletin_source_id": "bocyl", "resolver_id": "nominatim_municipio_centroid", "DS_NOMB_AMB": null, "geometry_scope": "municipio_centroid_fallback"}, "geometry": {"type": "Point", "coordinates": [-5.7212275, 40.907751]}}, {"type": "Feature", "properties": {"stable_key": "ce31699ee5f3b8603b5bbe4f40867300686182ff048a7c59aa7cb3f71950ec64", "municipio": "Castelló de la Plana", "sector": "Oficina integrada en la red de oficinas de vivienda, rehabilitación y regeneración urbana (Xarxa XALOC)", "provincia_linea": "Castelló de la Plana", "boletin_source_id": "dogv", "resolver_id": "nominatim_municipio_centroid", "DS_NOMB_AMB": null, "geometry_scope": "municipio_centroid_fallback"}, "geometry": {"type": "Point", "coordinates": [-0.0377354, 39.9860347]}}, {"type": "Feature", "properties": {"stable_key": "26c63aaf060b64be2e193d7399b0360d8734e309939773910f511097e07803b1", "municipio": "Valladolid", "sector": "Soto de Medinilla y Avenida de Santander Oeste Unidad Urbana 24 Avenida de Santander", "provincia_linea": "Valladolid", "boletin_source_id": "bocyl", "resolver_id": "nominatim_municipio_centroid", "DS_NOMB_AMB": null, "geometry_scope": "municipio_centroid_fallback"}, "geometry": {"type": "Point", "coordinates": [-4.7259906, 41.6200024]}}, {"type": "Feature", "properties": {"stable_key": "4143bd77d5d08af1fbb8af1d64cb8763ae590a62784f16c3b1e101292bfec38f", "municipio": "Tarifa", "sector": "La Vega Obtención de Equipamientos y Cambio Sistema General de Comunicaciones a Espacios Libres", "provincia_linea": "Tarifa", "boletin_source_id": "boja", "resolver_id": "nominatim_municipio_centroid", "DS_NOMB_AMB": null, "geometry_scope": "municipio_centroid_fallback"}, "geometry": {"type": "Point", "coordinates": [-5.6050213, 36.0129082]}}, {"type": "Feature", "properties": {"stable_key": "b9604b75c4031f04b187d50e68a1389d894259b3aac8862c0c6ef28d2fe5c80f", "municipio": "Sant Joan d’Alacant", "sector": "Red de Oficinas de Vivienda, Rehabilitación y Regeneración Urbana (Xarxa XALOC)", "provincia_linea": "Sant Joan d’Alacant", "boletin_source_id": "dogv", "resolver_id": "nominatim_municipio_centroid", "DS_NOMB_AMB": null, "geometry_scope": "municipio_centroid_fallback"}, "geometry": {"type": "Point", "coordinates": [-0.4359957, 38.4014162]}}, {"type": "Feature", "properties": {"stable_key": "85619d7d71f508b0a3f147f34afacf7ab93492ab896b0729b303f28e6967fd0f", "municipio": "Moguer", "sector": "Mazagón", "provincia_linea": "Moguer-Huelva", "boletin_source_id": "boja", "resolver_id": "nominatim_municipio_centroid", "DS_NOMB_AMB": null, "geometry_scope": "municipio_centroid_fallback"}, "geometry": {"type": "Point", "coordinates": [-6.8373527, 37.2746182]}}, {"type": "Feature", "properties": {"stable_key": "64124a019a91da2038bfbdb4a9946a313e96558dc20b47762f9650d65a58e8ca", "municipio": "Aracena", "sector": "SGEL-4", "provincia_linea": "Aracena, Huelva", "boletin_source_id": "boja", "resolver_id": "nominatim_municipio_centroid", "DS_NOMB_AMB": null, "geometry_scope": "municipio_centroid_fallback"}, "geometry": {"type": "Point", "coordinates": [-6.5624496, 37.8949414]}}, {"type": "Feature", "properties": {"stable_key": "53ce708e421b597e402e25df544b564bf2dd5be3c0dfe69a08d3c28652e75f0f", "municipio": "Mijas", "sector": "Acondicionamiento de la carretera A-7053. Tramo: Puerto de los Pescadores-Entrerríos", "provincia_linea": "Mijas-Málaga", "boletin_source_id": "boja", "resolver_id": "nominatim_municipio_centroid", "DS_NOMB_AMB": null, "geometry_scope": "municipio_centroid_fallback"}, "geometry": {"type": "Point", "coordinates": [-4.6950428, 36.5557539]}}, {"type": "Feature", "properties": {"stable_key": "2b0ac6a8e84bd090c35ac5b78aac16e4abd8c168e82cf29687d65e17d7cba7c4", "municipio": "Granada", "sector": "A-4154", "provincia_linea": "Granada", "boletin_source_id": "boja", "resolver_id": "nominatim_municipio_centroid", "DS_NOMB_AMB": null, "geometry_scope": "municipio_centroid_fallback"}, "geometry": {"type": "Point", "coordinates": [-3.5995337, 37.1734995]}}, {"type": "Feature", "properties": {"stable_key": "b7885413e09037b4abde0e4e78e41bf4592dc93ea323864ee5433d613c6f8698", "municipio": "Los Huertos", "sector": "Ampliación centro de tratamiento de residuos", "provincia_linea": "Los Huertos-Segovia", "boletin_source_id": "bocyl", "resolver_id": "nominatim_municipio_centroid", "DS_NOMB_AMB": null, "geometry_scope": "municipio_centroid_fallback"}, "geometry": {"type": "Point", "coordinates": [-4.2194637, 41.0102912]}}, {"type": "Feature", "properties": {"stable_key": "4b0936bd8aaf26de0e894db4e511f065d999e1d64794f872ab82e47ff53a9d9b", "municipio": "Paterna de Rivera", "sector": "Ampliación del Sistema General de Equipamientos EQ-7 Cementerio Municipal", "provincia_linea": "Paterna de Rivera", "boletin_source_id": "boja", "resolver_id": "nominatim_municipio_centroid", "DS_NOMB_AMB": null, "geometry_scope": "municipio_centroid_fallback"}, "geometry": {"type": "Point", "coordinates": [-5.864702, 36.5229634]}}, {"type": "Feature", "properties": {"stable_key": "a5a6921cc1d21a0863fe9b85d098738a6b4d29ec9228f9cfb44bf4b82136c106", "municipio": "Villalar de los Comuneros", "sector": "Villalar de los Comuneros", "provincia_linea": "Villalar de los Comuneros (Valladolid)", "boletin_source_id": "bocyl", "resolver_id": "nominatim_municipio_centroid", "DS_NOMB_AMB": null, "geometry_scope": "municipio_centroid_fallback"}, "geometry": {"type": "Point", "coordinates": [-5.1384795, 41.5499934]}}, {"type": "Feature", "properties": {"stable_key": "80acef92e13615d6a78f5185f651efbcd885e052c97ed2afcf1f9df242a9fff0", "municipio": "Tiedra", "sector": "Tiedra", "provincia_linea": "Tiedra (Valladolid)", "boletin_source_id": "bocyl", "resolver_id": "nominatim_municipio_centroid", "DS_NOMB_AMB": null, "geometry_scope": "municipio_centroid_fallback"}, "geometry": {"type": "Point", "coordinates": [-5.2675586, 41.6524191]}}, {"type": "Feature", "properties": {"stable_key": "5d84f631a7bfc33d5d60090def2319a5fb06fda6d4cb7648fd0620431813ae6a", "municipio": "Carmona", "sector": "circuito de velocidad", "provincia_linea": "Carmona-Sevilla", "boletin_source_id": "boja", "resolver_id": "nominatim_municipio_centroid", "DS_NOMB_AMB": null, "geometry_scope": "municipio_centroid_fallback"}, "geometry": {"type": "Point", "coordinates": [-5.641291, 37.4717882]}}, {"type": "Feature", "properties": {"stable_key": "dc6868e6dd9b0355c79dd16449bb9c2e34d215f3c031a74d514043303ac1be55", "municipio": "Arjona", "sector": "Mejora de la carretera A-6176 de Arjona a Marmolejo", "provincia_linea": "Arjona, Jaén", "boletin_source_id": "boja", "resolver_id": "nominatim_municipio_centroid", "DS_NOMB_AMB": null, "geometry_scope": "municipio_centroid_fallback"}, "geometry": {"type": "Point", "coordinates": [-4.0544689, 37.9355989]}}, {"type": "Feature", "properties": {"stable_key": "87310ad2ac6d2e6493b80fcfee519566622482fba5c32dac4856b7fb6dfb9e87", "municipio": "Salamanca", "sector": "Bloques de Nicar", "provincia_linea": "Salamanca", "boletin_source_id": "bocyl", "resolver_id": "nominatim_municipio_centroid", "DS_NOMB_AMB": null, "geometry_scope": "municipio_centroid_fallback"}, "geometry": {"type": "Point", "coordinates": [-5.6640182, 40.9651572]}}, {"type": "Feature", "properties": {"stable_key": "03a661f09ce6f63601f3f69837c0e92ccb97db73880f8cc5cafa7dc6f461dd70", "municipio": "Salamanca", "sector": "Gladiolos", "provincia_linea": "Salamanca", "boletin_source_id": "bocyl", "resolver_id": "nominatim_municipio_centroid", "DS_NOMB_AMB": null, "geometry_scope": "municipio_centroid_fallback"}, "geometry": {"type": "Point", "coordinates": [-5.6640182, 40.9651572]}}, {"type": "Feature", "properties": {"stable_key": "ee5d85c77fcb72d22055cc0cbab636f6728b61765d8b007f511a6f295ed514b1", "municipio": "Chiva", "sector": "Residencial La Loma", "provincia_linea": "Chiva (Valencia)", "boletin_source_id": "dogv", "resolver_id": "nominatim_municipio_centroid", "DS_NOMB_AMB": null, "geometry_scope": "municipio_centroid_fallback"}, "geometry": {"type": "Point", "coordinates": [-0.7178348, 39.4726098]}}, {"type": "Feature", "properties": {"stable_key": "3b6d6853c614a28931213db48254d6d1b0eee49aaa0e7400eb5d7790bbddb0c7", "municipio": "Ronda", "sector": "Variante este de Arriate", "provincia_linea": "Ronda/Málaga", "boletin_source_id": "boja", "resolver_id": "nominatim_municipio_centroid", "DS_NOMB_AMB": null, "geometry_scope": "municipio_centroid_fallback"}, "geometry": {"type": "Point", "coordinates": [-5.1665916, 36.7421339]}}, {"type": "Feature", "properties": {"stable_key": "92553bb3120d90f9e1ad8519eed8e3a034becf5942ff017a0225f37b9aa346b7", "municipio": "Valladolid", "sector": "29 de octubre", "provincia_linea": "Valladolid", "boletin_source_id": "bocyl", "resolver_id": "nominatim_municipio_centroid", "DS_NOMB_AMB": null, "geometry_scope": "municipio_centroid_fallback"}, "geometry": {"type": "Point", "coordinates": [-4.7259906, 41.6200024]}}, {"type": "Feature", "properties": {"stable_key": "9858604f7c4f337523b9d161cea2ce63239f5858a95c85c1743f088d6a40e8fe", "municipio": "El Puerto de Santa María", "sector": "NO-3 «Las Marías»", "provincia_linea": "El Puerto de Santa María", "boletin_source_id": "boja", "resolver_id": "nominatim_municipio_centroid", "DS_NOMB_AMB": null, "geometry_scope": "municipio_centroid_fallback"}, "geometry": {"type": "Point", "coordinates": [-6.2252702, 36.6004006]}}, {"type": "Feature", "properties": {"stable_key": "3f636ba4904de8e61d3109eb4af4e8bc48cbf421d8f371b4eff3f1572c983b17", "municipio": "Valle de Valdelaguna", "sector": "Huerta de Abajo, parcela 334 del polígono 12", "provincia_linea": "Valle de Valdelaguna (Burgos)", "boletin_source_id": "bocyl", "resolver_id": "nominatim_municipio_centroid", "DS_NOMB_AMB": null, "geometry_scope": "municipio_centroid_fallback"}, "geometry": {"type": "Point", "coordinates": [-3.1558828, 42.1034698]}}, {"type": "Feature", "properties": {"stable_key": "5336c6b3b7192d95e2375420b1806f6b0f83fe03fa9067b195b673faf04f9e2a", "municipio": "Conil de la Frontera", "sector": "Depuradora de la Vega del Río Salado", "provincia_linea": "Conil de la Frontera (Cádiz)", "boletin_source_id": "boja", "resolver_id": "nominatim_municipio_centroid", "DS_NOMB_AMB": null, "geometry_scope": "municipio_centroid_fallback"}, "geometry": {"type": "Point", "coordinates": [-6.0881874, 36.277054]}}, {"type": "Feature", "properties": {"stable_key": "a69876a38163db2f704e01ef33b524b02518aede8ed5a59bd45ac8b2e8386c36", "municipio": "Salamanca", "sector": "Chinchibarra 2", "provincia_linea": "Salamanca", "boletin_source_id": "bocyl", "resolver_id": "nominatim_municipio_centroid", "DS_NOMB_AMB": null, "geometry_scope": "municipio_centroid_fallback"}, "geometry": {"type": "Point", "coordinates": [-5.6640182, 40.9651572]}}, {"type": "Feature", "properties": {"stable_key": "d97766ac58c0ac125ec10015a3ebbe156580929e128ba510f907554ea262f5e9", "municipio": "Los Realejos", "sector": "Los Príncipes", "provincia_linea": "Los Realejos", "boletin_source_id": "boc_canarias", "resolver_id": "nominatim_municipio_centroid", "DS_NOMB_AMB": null, "geometry_scope": "municipio_centroid_fallback"}, "geometry": {"type": "Point", "coordinates": [-16.5849518, 28.350311]}}, {"type": "Feature", "properties": {"stable_key": "515aeba19fe70c992c59661b723aac7c67b7123704506f6e4df7909e50dbb559", "municipio": "Jávea", "sector": "L’Atzúbia Cap Martí", "provincia_linea": "Jávea", "boletin_source_id": "dogv", "resolver_id": "nominatim_municipio_centroid", "DS_NOMB_AMB": null, "geometry_scope": "municipio_centroid_fallback"}, "geometry": {"type": "Point", "coordinates": [0.1634168, 38.7893804]}}, {"type": "Feature", "properties": {"stable_key": "ecb3ace701f9e7099ca7af8074dd55d4afa2d09886683e87563de1069852fb5a", "municipio": "Burgos", "sector": "V-1 «Villimar»", "provincia_linea": "Burgos, Burgos", "boletin_source_id": "bocyl", "resolver_id": "nominatim_municipio_centroid", "DS_NOMB_AMB": null, "geometry_scope": "municipio_centroid_fallback"}, "geometry": {"type": "Point", "coordinates": [-3.6812477, 42.3448498]}}, {"type": "Feature", "properties": {"stable_key": "f8e63c564aa8d44553831048cd80c4298adcbb2bf9b1430c7195838816bede38", "municipio": "Villafranca de Córdoba", "sector": "SUO Industrial PP-SI8", "provincia_linea": "Villafranca de Córdoba", "boletin_source_id": "boja", "resolver_id": "nominatim_municipio_centroid", "DS_NOMB_AMB": null, "geometry_scope": "municipio_centroid_fallback"}, "geometry": {"type": "Point", "coordinates": [-4.5533602, 37.9504753]}}, {"type": "Feature", "properties": {"stable_key": "b4bea201ac4557e24d60b24f7ece9ccb9e8c18c21ecc03900318246378a8f60c", "municipio": "El Real de Gandia", "sector": "Cambio de ubicación de equipamiento deportivo y reajuste de sectores residenciales e industrial-almacenes", "provincia_linea": "El Real de Gandia", "boletin_source_id": "dogv", "resolver_id": "nominatim_municipio_centroid", "DS_NOMB_AMB": null, "geometry_scope": "municipio_centroid_fallback"}, "geometry": {"type": "Point", "coordinates": [-0.1915574, 38.9482364]}}, {"type": "Feature", "properties": {"stable_key": "2bb2ed725143124d6213df7444930185ed76c488a587b3934396dac7310861ec", "municipio": "San Sebastián", "sector": "Conexión GM-1-Vía de acceso a La Lomada-Lomo del Clavo/Ávalos", "provincia_linea": "San Sebastián/La Gomera", "boletin_source_id": "boc_canarias", "resolver_id": "nominatim_municipio_centroid", "DS_NOMB_AMB": null, "geometry_scope": "municipio_centroid_fallback"}, "geometry": {"type": "Point", "coordinates": [-1.9838889, 43.3224219]}}, {"type": "Feature", "properties": {"stable_key": "ec7d607b708178862f07c9ae2e3f6f1e70c84d1323981dc5dcb6da03fa2801dc", "municipio": "Peñafiel", "sector": "Conjunto histórico de Peñafiel", "provincia_linea": "Peñafiel, Valladolid", "boletin_source_id": "bocyl", "resolver_id": "nominatim_municipio_centroid", "DS_NOMB_AMB": null, "geometry_scope": "municipio_centroid_fallback"}, "geometry": {"type": "Point", "coordinates": [-4.1215713, 41.5966366]}}, {"type": "Feature", "properties": {"stable_key": "e566e9a8ea2664ffa68b8c34802d5ca83d1bcee5823e0926bdeeb87802ea7c34", "municipio": "Ávila", "sector": "PP Soto I", "provincia_linea": "Ávila-Ávila", "boletin_source_id": "bocyl", "resolver_id": "nominatim_municipio_centroid", "DS_NOMB_AMB": null, "geometry_scope": "municipio_centroid_fallback"}, "geometry": {"type": "Point", "coordinates": [-4.6626677, 40.657195]}}, {"type": "Feature", "properties": {"stable_key": "6073ebe2ceac4b8b963ea21fde54772dacccec0d963c3417a47525b54d8594bf", "municipio": "Alcalá de Guadaíra", "sector": "Centro integral de tratamiento de residuos urbanos Montemarta-Cónica", "provincia_linea": "Alcalá de Guadaíra (Sevilla)", "boletin_source_id": "boja", "resolver_id": "nominatim_municipio_centroid", "DS_NOMB_AMB": null, "geometry_scope": "municipio_centroid_fallback"}, "geometry": {"type": "Point", "coordinates": [-5.8408396, 37.3397709]}}, {"type": "Feature", "properties": {"stable_key": "d6996c64cee9eafac72d5bf1b0ec4ec7e0af597d9bd042df0a10741275871003", "municipio": "Albaida", "sector": "Vessant del Calvari", "provincia_linea": "Albaida", "boletin_source_id": "dogv", "resolver_id": "nominatim_municipio_centroid", "DS_NOMB_AMB": null, "geometry_scope": "municipio_centroid_fallback"}, "geometry": {"type": "Point", "coordinates": [-0.5181895, 38.838669]}}, {"type": "Feature", "properties": {"stable_key": "7e16fefb6e305fb4a2b419068acbc2f080a0e11c4dccb2dcb87b85349b79847b", "municipio": "Mojácar", "sector": "Carretera A-1203-Paraje de las Marinas", "provincia_linea": "Mojácar, Almería", "boletin_source_id": "boja", "resolver_id": "nominatim_municipio_centroid", "DS_NOMB_AMB": null, "geometry_scope": "municipio_centroid_fallback"}, "geometry": {"type": "Point", "coordinates": [-1.8510071, 37.1402087]}}, {"type": "Feature", "properties": {"stable_key": "ff541a1c5323b7d2ca6fbfd8c17455811e71643c5fd87ed8a98879a894341f0a", "municipio": "Madrid", "sector": "Paseo del Prado 30", "provincia_linea": "Madrid", "boletin_source_id": null, "resolver_id": "nominatim_municipio_centroid", "DS_NOMB_AMB": null, "geometry_scope": "municipio_centroid_fallback"}, "geometry": {"type": "Point", "coordinates": [-3.703507, 40.416782]}}, {"type": "Feature", "properties": {"stable_key": "01114aaca95112324c70cc80d65f23bca3265d2e535a5f348d5d2dd4c25bf8c7", "municipio": "Pinto", "sector": "UE-52", "provincia_linea": "Pinto", "boletin_source_id": null, "resolver_id": "nominatim_municipio_centroid", "DS_NOMB_AMB": null, "geometry_scope": "municipio_centroid_fallback"}, "geometry": {"type": "Point", "coordinates": [-3.7005072, 40.240985]}}, {"type": "Feature", "properties": {"stable_key": "2b7049c3bed9d0f14df16b236b375552cfa5b487f13cbcfb235edc57cf85c47b", "municipio": "Ciempozuelos", "sector": "UE-1 del SURT-13 “La Barrera” del Plan General de Ciempozuelos", "provincia_linea": "Ciempozuelos", "boletin_source_id": null, "resolver_id": "nominatim_municipio_centroid", "DS_NOMB_AMB": null, "geometry_scope": "municipio_centroid_fallback"}, "geometry": {"type": "Point", "coordinates": [-3.6205514, 40.1580087]}}, {"type": "Feature", "properties": {"stable_key": "afaafb2cdd3d34f96b156cb69461e0afd60f8cf398bb454e5036742f6ccb7ddd", "municipio": "Lozoyuela-Navas-Sieteiglesias", "sector": "El Palancar", "provincia_linea": "Lozoyuela-Navas-Sieteiglesias", "boletin_source_id": null, "resolver_id": "nominatim_municipio_centroid", "DS_NOMB_AMB": null, "geometry_scope": "municipio_centroid_fallback"}, "geometry": {"type": "Point", "coordinates": [-3.6176377, 40.9263383]}}, {"type": "Feature", "properties": {"stable_key": "8712155f74f24afe43d85fac9f6a6f364cad6dac24c037ccb0bb7c0555767104", "municipio": "Ciempozuelos", "sector": "S-9 “Las Canteras II”", "provincia_linea": "Ciempozuelos", "boletin_source_id": null, "resolver_id": "nominatim_municipio_centroid", "DS_NOMB_AMB": null, "geometry_scope": "municipio_centroid_fallback"}, "geometry": {"type": "Point", "coordinates": [-3.6205514, 40.1580087]}}, {"type": "Feature", "properties": {"stable_key": "11de49bddf37eee191c45b3f6749a836eeb030631159029b7dbebdd979fae801", "municipio": "Getafe", "sector": "Nuevas instalaciones tecnológicas y productivas de EADS-CASA", "provincia_linea": "Getafe", "boletin_source_id": null, "resolver_id": "nominatim_municipio_centroid", "DS_NOMB_AMB": null, "geometry_scope": "municipio_centroid_fallback"}, "geometry": {"type": "Point", "coordinates": [-3.7331808, 40.3070639]}}, {"type": "Feature", "properties": {"stable_key": "fa071277b195dcbd31763c1b61a7c1d18b414ce9fbbca29a3b37524c7ff80861", "municipio": "Collado Villalba", "sector": "Prado Manzano", "provincia_linea": "Collado Villalba", "boletin_source_id": null, "resolver_id": "nominatim_municipio_centroid", "DS_NOMB_AMB": null, "geometry_scope": "municipio_centroid_fallback"}, "geometry": {"type": "Point", "coordinates": [-3.9819765, 40.6483467]}}, {"type": "Feature", "properties": {"stable_key": "38111f1585abdb9fe38c1d935236ddbfa3fe82345c75e5abe698dac07585455c", "municipio": "El Berrueco", "sector": "Pradera del Amor", "provincia_linea": "El Berrueco", "boletin_source_id": null, "resolver_id": "nominatim_municipio_centroid", "DS_NOMB_AMB": null, "geometry_scope": "municipio_centroid_fallback"}, "geometry": {"type": "Point", "coordinates": [-3.5614344, 40.8889705]}}, {"type": "Feature", "properties": {"stable_key": "9018005a6a74e1c383818ffae432c9e58304945a3537b91d7f2a75d8c46c7b5c", "municipio": "Villalbilla", "sector": "Valdecarpintero", "provincia_linea": "Villalbilla", "boletin_source_id": null, "resolver_id": "nominatim_municipio_centroid", "DS_NOMB_AMB": null, "geometry_scope": "municipio_centroid_fallback"}, "geometry": {"type": "Point", "coordinates": [-3.2987815, 40.4323665]}}, {"type": "Feature", "properties": {"stable_key": "484f71dc53a849e52ddf2ab7247211f717607240fdeb5b52119bbdbfd4e06959", "municipio": "Galapagar", "sector": "Centro de salud y mercado municipal (antiguo polígono 44)", "provincia_linea": "Galapagar", "boletin_source_id": null, "resolver_id": "nominatim_municipio_centroid", "DS_NOMB_AMB": null, "geometry_scope": "municipio_centroid_fallback"}, "geometry": {"type": "Point", "coordinates": [-4.0037374, 40.5773999]}}, {"type": "Feature", "properties": {"stable_key": "0885d6a0dad7660159553d48e404ad8caa971ac8d26903af6d0637b3b64ea011", "municipio": "Villanueva de la Cañada", "sector": "Sector 1 “Los Pocillos”", "provincia_linea": "Villanueva de la Cañada", "boletin_source_id": null, "resolver_id": "nominatim_municipio_centroid", "DS_NOMB_AMB": null, "geometry_scope": "municipio_centroid_fallback"}, "geometry": {"type": "Point", "coordinates": [-4.002795, 40.4472106]}}, {"type": "Feature", "properties": {"stable_key": "fb4d44789d4fb65e4a821fddf07e140bf4da66cc4dba4bfd8009f284595d7a49", "municipio": "La Cabrera", "sector": "Los Poyales, número 17", "provincia_linea": "La Cabrera", "boletin_source_id": null, "resolver_id": "nominatim_municipio_centroid", "DS_NOMB_AMB": null, "geometry_scope": "municipio_centroid_fallback"}, "geometry": {"type": "Point", "coordinates": [-3.6125468, 40.8651738]}}, {"type": "Feature", "properties": {"stable_key": "3a192eb6f6183092d3d98087c792957280d7f24f690955464662f013e8700a2a", "municipio": "Fuenlabrada", "sector": "PPI-3", "provincia_linea": "Fuenlabrada", "boletin_source_id": null, "resolver_id": "nominatim_municipio_centroid", "DS_NOMB_AMB": null, "geometry_scope": "municipio_centroid_fallback"}, "geometry": {"type": "Point", "coordinates": [-3.7923422, 40.282476]}}, {"type": "Feature", "properties": {"stable_key": "91f836f23eac125d620b91b73e6e9919d8f33e8120b3af6645a0df01f885dfb5", "municipio": "Aranjuez", "sector": "antiguos sectores IXa, “Ferrocarril”, y IXb, “Cerro de la Linterna” Este", "provincia_linea": "Aranjuez", "boletin_source_id": null, "resolver_id": "nominatim_municipio_centroid", "DS_NOMB_AMB": null, "geometry_scope": "municipio_centroid_fallback"}, "geometry": {"type": "Point", "coordinates": [-3.6040097, 40.0322289]}}, {"type": "Feature", "properties": {"stable_key": "d76cb02102fafaa03d643a5b53ee6e87b624dbe52c155831327154a7645596c9", "municipio": "Madrid", "sector": "Norma Zonal 9, grados 1.o, 2.o y 3.o", "provincia_linea": "Madrid", "boletin_source_id": null, "resolver_id": "nominatim_municipio_centroid", "DS_NOMB_AMB": null, "geometry_scope": "municipio_centroid_fallback"}, "geometry": {"type": "Point", "coordinates": [-3.703507, 40.416782]}}, {"type": "Feature", "properties": {"stable_key": "2a7bbefb993b565345caca8164ed8e05cd98e1f5d81ded41b108f7fd0e494eef", "municipio": "Madrid", "sector": "UZI 0.01 “La Resina”", "provincia_linea": "Madrid", "boletin_source_id": null, "resolver_id": "nominatim_municipio_centroid", "DS_NOMB_AMB": null, "geometry_scope": "municipio_centroid_fallback"}, "geometry": {"type": "Point", "coordinates": [-3.703507, 40.416782]}}, {"type": "Feature", "properties": {"stable_key": "f34221a57c3cfc30cd00566737897cf9efe4d5fc62b7aa470d9aefb2f29e1fdf", "municipio": "Arganda del Rey", "sector": "Estaciones de servicio y tanatorios", "provincia_linea": "Arganda del Rey", "boletin_source_id": null, "resolver_id": "nominatim_municipio_centroid", "DS_NOMB_AMB": null, "geometry_scope": "municipio_centroid_fallback"}, "geometry": {"type": "Point", "coordinates": [-3.4381627, 40.3007913]}}, {"type": "Feature", "properties": {"stable_key": "43a4589099c89476a16257be5ee83bf1a0326660180192aaa7eaa590d5be95db", "municipio": "Pozuelo de Alarcón", "sector": "Conexión calles Antonio López-Juana Martín-Antonio Calvo Santos", "provincia_linea": "Pozuelo de Alarcón", "boletin_source_id": null, "resolver_id": "nominatim_municipio_centroid", "DS_NOMB_AMB": null, "geometry_scope": "municipio_centroid_fallback"}, "geometry": {"type": "Point", "coordinates": [-3.814834, 40.4346528]}}, {"type": "Feature", "properties": {"stable_key": "48e189f451a3dd74fe761c5a21492b00f5e02f1f45093a60b3792afa6ad1db15", "municipio": "Cercedilla", "sector": "Navalcaballo", "provincia_linea": "Cercedilla", "boletin_source_id": null, "resolver_id": "nominatim_municipio_centroid", "DS_NOMB_AMB": null, "geometry_scope": "municipio_centroid_fallback"}, "geometry": {"type": "Point", "coordinates": [-4.0558002, 40.7412931]}}, {"type": "Feature", "properties": {"stable_key": "e48696bac4c3df2ea6beae810ef5aabde74a04469df39e8fe0fd6d2b1d749f9e", "municipio": "Villavieja de Lozoya", "sector": "Vereda Cordel de la Cardenilla", "provincia_linea": "Villavieja de Lozoya", "boletin_source_id": null, "resolver_id": "nominatim_municipio_centroid", "DS_NOMB_AMB": null, "geometry_scope": "municipio_centroid_fallback"}, "geometry": {"type": "Point", "coordinates": [-3.6739635, 41.0064774]}}, {"type": "Feature", "properties": {"stable_key": "f5f37996c3a9fc5a31f366f5187644443967308016c85ea1209a4c87c3827a2e", "municipio": "Getafe", "sector": "PAU-2 “El Bercial-Universidad”", "provincia_linea": "Getafe", "boletin_source_id": null, "resolver_id": "nominatim_municipio_centroid", "DS_NOMB_AMB": null, "geometry_scope": "municipio_centroid_fallback"}, "geometry": {"type": "Point", "coordinates": [-3.7331808, 40.3070639]}}, {"type": "Feature", "properties": {"stable_key": "595c4daf7446d917ab2849807d38af1c361dc62a1098333da35faa3f278e188e", "municipio": "Madrid", "sector": "Gran Vía, número 33", "provincia_linea": "Madrid", "boletin_source_id": null, "resolver_id": "nominatim_municipio_centroid", "DS_NOMB_AMB": null, "geometry_scope": "municipio_centroid_fallback"}, "geometry": {"type": "Point", "coordinates": [-3.703507, 40.416782]}}, {"type": "Feature", "properties": {"stable_key": "c6c8cbfad45a2c2f9f65c03641b625be2338a1f190a97b9f4dddbb8f03adae88", "municipio": "Las Rozas de Madrid", "sector": "La Marazuela", "provincia_linea": "Las Rozas de Madrid", "boletin_source_id": null, "resolver_id": "nominatim_municipio_centroid", "DS_NOMB_AMB": null, "geometry_scope": "municipio_centroid_fallback"}, "geometry": {"type": "Point", "coordinates": [-3.8758396, 40.4933095]}}, {"type": "Feature", "properties": {"stable_key": "8bcfeeebd156907d80fb83829d7f145292b3fcf50accf2fc1041ac9635145336", "municipio": "Pozuelo de Alarcón", "sector": "Calle Campomanes", "provincia_linea": "Pozuelo de Alarcón", "boletin_source_id": null, "resolver_id": "nominatim_municipio_centroid", "DS_NOMB_AMB": null, "geometry_scope": "municipio_centroid_fallback"}, "geometry": {"type": "Point", "coordinates": [-3.814834, 40.4346528]}}, {"type": "Feature", "properties": {"stable_key": "80faf0319ce7d57c3b32919f26719a1efcb662448d8ce70317d5772d6bdd743c", "municipio": "Pozuelo de Alarcón", "sector": "Carretera de Boadilla Sur", "provincia_linea": "Pozuelo de Alarcón", "boletin_source_id": null, "resolver_id": "nominatim_municipio_centroid", "DS_NOMB_AMB": null, "geometry_scope": "municipio_centroid_fallback"}, "geometry": {"type": "Point", "coordinates": [-3.814834, 40.4346528]}}, {"type": "Feature", "properties": {"stable_key": "d61c93c623f200bb2ac0f21a5d74244cbb4dc96dc10df7a1f52ccb952b0f0b90", "municipio": "Villaviciosa de Odón", "sector": "Avenida Príncipe de Asturias-Renault", "provincia_linea": "Villaviciosa de Odón", "boletin_source_id": null, "resolver_id": "nominatim_municipio_centroid", "DS_NOMB_AMB": null, "geometry_scope": "municipio_centroid_fallback"}, "geometry": {"type": "Point", "coordinates": [-3.9002334, 40.3573787]}}, {"type": "Feature", "properties": {"stable_key": "b3d0174de65a3a777611c39a52697ee19a07aa609e60cd268de4f991efc6f6ba", "municipio": "Villaviciosa de Odón", "sector": "APR-8, “Avenida Príncipe de Asturias-Renault”", "provincia_linea": "Villaviciosa de Odón", "boletin_source_id": null, "resolver_id": "nominatim_municipio_centroid", "DS_NOMB_AMB": null, "geometry_scope": "municipio_centroid_fallback"}, "geometry": {"type": "Point", "coordinates": [-3.9002334, 40.3573787]}}, {"type": "Feature", "properties": {"stable_key": "06341e9e0a3affa51bfd2cb9befa3fe9c03472f145a7b8097e634bb62b5ec51e", "municipio": "Cobeña", "sector": "SAU número 2 de Cobeña (Madrid)", "provincia_linea": "Cobeña", "boletin_source_id": null, "resolver_id": "nominatim_municipio_centroid", "DS_NOMB_AMB": null, "geometry_scope": "municipio_centroid_fallback"}, "geometry": {"type": "Point", "coordinates": [-3.5113794, 40.5674016]}}, {"type": "Feature", "properties": {"stable_key": "0d12c87315067734504bddf6f5fb5171ed01c25a1ca57ad65f7ff4461601fef3", "municipio": "Alcalá de Henares", "sector": "Polígono 21-A", "provincia_linea": "Alcalá de Henares", "boletin_source_id": null, "resolver_id": "nominatim_municipio_centroid", "DS_NOMB_AMB": null, "geometry_scope": "municipio_centroid_fallback"}, "geometry": {"type": "Point", "coordinates": [-3.363981, 40.481954]}}, {"type": "Feature", "properties": {"stable_key": "26c74bab3988720297956658812c307e18114f2fb2b39e7301b7a4bb56279f88", "municipio": "Madrid", "sector": "Manzana 53.1 (parcelas 7 a 38) del Suelo Urbanizable Incorporado 0.07 “Monte Carmelo”", "provincia_linea": "Madrid", "boletin_source_id": null, "resolver_id": "nominatim_municipio_centroid", "DS_NOMB_AMB": null, "geometry_scope": "municipio_centroid_fallback"}, "geometry": {"type": "Point", "coordinates": [-3.703507, 40.416782]}}, {"type": "Feature", "properties": {"stable_key": "a8849c9592995f64f598f82334aa0af1354a4ffc7871b93ce2bdd8415d37dd5e", "municipio": "Alcorcón", "sector": "Parque de Actividades “El Lucero”", "provincia_linea": "Alcorcón", "boletin_source_id": null, "resolver_id": "nominatim_municipio_centroid", "DS_NOMB_AMB": null, "geometry_scope": "municipio_centroid_fallback"}, "geometry": {"type": "Point", "coordinates": [-3.8284295, 40.3492998]}}, {"type": "Feature", "properties": {"stable_key": "8dba7e46ac9c0d6af918bb22204138b939d4456321e113b5d6bf88728a8cea93", "municipio": "Ciempozuelos", "sector": "Polígono industrial, sector 18, “La Sendilla”", "provincia_linea": "Ciempozuelos, Madrid", "boletin_source_id": null, "resolver_id": "nominatim_municipio_centroid", "DS_NOMB_AMB": null, "geometry_scope": "municipio_centroid_fallback"}, "geometry": {"type": "Point", "coordinates": [-3.6205514, 40.1580087]}}, {"type": "Feature", "properties": {"stable_key": "081db2520c4c91a91b0b7fef531d02d97f32bc9bdf2819b0ca6040e776abb13f", "municipio": "Moralzarzal", "sector": "Canteras", "provincia_linea": "Moralzarzal", "boletin_source_id": null, "resolver_id": "nominatim_municipio_centroid", "DS_NOMB_AMB": null, "geometry_scope": "municipio_centroid_fallback"}, "geometry": {"type": "Point", "coordinates": [-3.9721764, 40.6791517]}}, {"type": "Feature", "properties": {"stable_key": "a473f0830956fdc794aedf607b9bf398db38701ffb67ab1cdfdc1ee0bfd77eb2", "municipio": "Getafe", "sector": "La Estación", "provincia_linea": "Getafe", "boletin_source_id": null, "resolver_id": "nominatim_municipio_centroid", "DS_NOMB_AMB": null, "geometry_scope": "municipio_centroid_fallback"}, "geometry": {"type": "Point", "coordinates": [-3.7331808, 40.3070639]}}, {"type": "Feature", "properties": {"stable_key": "6b61ee5cd1f4576d9ec70a92ae3642054afcfda37f5590e51be010d9da0e10f6", "municipio": "Torrelodones", "sector": "Sector número 8 (APD-8)", "provincia_linea": "Torrelodones", "boletin_source_id": null, "resolver_id": "nominatim_municipio_centroid", "DS_NOMB_AMB": null, "geometry_scope": "municipio_centroid_fallback"}, "geometry": {"type": "Point", "coordinates": [-3.928603, 40.5762809]}}, {"type": "Feature", "properties": {"stable_key": "27dc8ca1ab77503fed5f8a226dd004a04bbf7d61a39d63e36135b8c262710003", "municipio": "El Molar", "sector": "Proyecto de Depósito de La Torreta de 8.000 metros cúbicos y tubería de aducción al depósito", "provincia_linea": "El Molar", "boletin_source_id": null, "resolver_id": "nominatim_municipio_centroid", "DS_NOMB_AMB": null, "geometry_scope": "municipio_centroid_fallback"}, "geometry": {"type": "Point", "coordinates": [-3.5832364, 40.7345156]}}, {"type": "Feature", "properties": {"stable_key": "3826af5e494b46f46ac7ce3f1923f9952cee55b2c71d6994cafffe60130414dd", "municipio": "Pozuelo de Alarcón", "sector": "Zona al Norte del Campus de Somosaguas y Campus de Somosaguas", "provincia_linea": "Pozuelo de Alarcón", "boletin_source_id": null, "resolver_id": "nominatim_municipio_centroid", "DS_NOMB_AMB": null, "geometry_scope": "municipio_centroid_fallback"}, "geometry": {"type": "Point", "coordinates": [-3.814834, 40.4346528]}}, {"type": "Feature", "properties": {"stable_key": "d93a74e9ba66c1f7e217bd688bb82b35d4f6302c1637bfa536bd951ce6409f8a", "municipio": "Algete", "sector": "Sector 9", "provincia_linea": "Algete", "boletin_source_id": null, "resolver_id": "nominatim_municipio_centroid", "DS_NOMB_AMB": null, "geometry_scope": "municipio_centroid_fallback"}, "geometry": {"type": "Point", "coordinates": [-3.4974479, 40.5961297]}}, {"type": "Feature", "properties": {"stable_key": "051974092f87abe31110c25a517e5d58b785ec418100e40e91960e529ae8f83c", "municipio": "El Escorial", "sector": "Calle Lorenzo Niño, número 5", "provincia_linea": "El Escorial", "boletin_source_id": null, "resolver_id": "nominatim_municipio_centroid", "DS_NOMB_AMB": null, "geometry_scope": "municipio_centroid_fallback"}, "geometry": {"type": "Point", "coordinates": [-4.1281427, 40.5836411]}}, {"type": "Feature", "properties": {"stable_key": "d58f30d203c803e7f964d62fc83d290cc3155af514bb16bd45d0f521f0267e21", "municipio": "Pozuelo de Alarcón", "sector": "Cocheras Llorente", "provincia_linea": "Pozuelo de Alarcón", "boletin_source_id": null, "resolver_id": "nominatim_municipio_centroid", "DS_NOMB_AMB": null, "geometry_scope": "municipio_centroid_fallback"}, "geometry": {"type": "Point", "coordinates": [-3.814834, 40.4346528]}}, {"type": "Feature", "properties": {"stable_key": "f49ca396f1e43b74c407061559d68718e523bf99aecca4c0b83c89dcf88949b6", "municipio": "Rivas-Vaciamadrid", "sector": "SUS PP B “Cristo de Rivas”", "provincia_linea": "Rivas-Vaciamadrid-Madrid", "boletin_source_id": null, "resolver_id": "nominatim_municipio_centroid", "DS_NOMB_AMB": null, "geometry_scope": "municipio_centroid_fallback"}, "geometry": {"type": "Point", "coordinates": [-3.5310879, 40.3536054]}}, {"type": "Feature", "properties": {"stable_key": "545e1c74cb36b293e6e9d66fe15fed8ee60ffdb2c2e470eeb07bb6578bdd2366", "municipio": "Valdemorillo", "sector": "Parque Infantas", "provincia_linea": "Valdemorillo, Madrid", "boletin_source_id": null, "resolver_id": "nominatim_municipio_centroid", "DS_NOMB_AMB": null, "geometry_scope": "municipio_centroid_fallback"}, "geometry": {"type": "Point", "coordinates": [-4.0688878, 40.5016772]}}, {"type": "Feature", "properties": {"stable_key": "c07d34f6aaedb2b78dd4016af9b671378be04943b8459be92aa8882b4b2b88fa", "municipio": "Torrejón de Ardoz", "sector": "Parque Europa de Torrejón de Ardoz", "provincia_linea": "Torrejón de Ardoz", "boletin_source_id": null, "resolver_id": "nominatim_municipio_centroid", "DS_NOMB_AMB": null, "geometry_scope": "municipio_centroid_fallback"}, "geometry": {"type": "Point", "coordinates": [-3.4793343, 40.4587767]}}, {"type": "Feature", "properties": {"stable_key": "7948adb957a139b16e86e14925f2db5f85cbc9d3dcbd71fe1998478f0eb5d4c4", "municipio": "Sanxenxo", "sector": "E69-B, en O Revel", "provincia_linea": "Sanxenxo, Pontevedra", "boletin_source_id": null, "resolver_id": "nominatim_municipio_centroid", "DS_NOMB_AMB": null, "geometry_scope": "municipio_centroid_fallback"}, "geometry": {"type": "Point", "coordinates": [-8.8353365, 42.4220772]}}, {"type": "Feature", "properties": {"stable_key": "d8443bd1faaec206edcbe5a4fe6ab0ede3b07ee1d1c04607639d8556890fda84", "municipio": "Cubas de la Sagra", "sector": "UE-25", "provincia_linea": "Cubas de la Sagra", "boletin_source_id": null, "resolver_id": "nominatim_municipio_centroid", "DS_NOMB_AMB": null, "geometry_scope": "municipio_centroid_fallback"}, "geometry": {"type": "Point", "coordinates": [-3.8378366, 40.1908352]}}, {"type": "Feature", "properties": {"stable_key": "f6993595e9aae03c95ccc7365b07f873f857b0a2c58128a846db4be5e6694fab", "municipio": "Madrid", "sector": "Área de Suelo Urbano Común 20.07", "provincia_linea": "Madrid", "boletin_source_id": null, "resolver_id": "nominatim_municipio_centroid", "DS_NOMB_AMB": null, "geometry_scope": "municipio_centroid_fallback"}, "geometry": {"type": "Point", "coordinates": [-3.703507, 40.416782]}}, {"type": "Feature", "properties": {"stable_key": "2f2558581bb0b1269713de356f4d8a6d2f8e07c27f43771132e3717cf0a76d6b", "municipio": "Torrejón de Ardoz", "sector": "SUP.R5 “Conexiones Alcalá”", "provincia_linea": "Torrejón de Ardoz", "boletin_source_id": null, "resolver_id": "nominatim_municipio_centroid", "DS_NOMB_AMB": null, "geometry_scope": "municipio_centroid_fallback"}, "geometry": {"type": "Point", "coordinates": [-3.4793343, 40.4587767]}}, {"type": "Feature", "properties": {"stable_key": "9ba5b67a014787782e04232b965513e8770b61c6fef70a04afe85df70e334f7c", "municipio": "El Boalo-Cerceda-Mataelpino", "sector": "Núcleo urbano de Cerceda", "provincia_linea": "El Boalo-Cerceda-Mataelpino", "boletin_source_id": null, "resolver_id": "nominatim_municipio_centroid", "DS_NOMB_AMB": null, "geometry_scope": "municipio_centroid_fallback"}, "geometry": {"type": "Point", "coordinates": [-3.9162426, 40.7227478]}}, {"type": "Feature", "properties": {"stable_key": "17eb99c7eb512ced71868b510c8eefd1413d309f364eb144d2deb19bd7ac4f7e", "municipio": "Villaviciosa de Odón", "sector": "Red exterior de evacuación de aguas residuales del sector Monte de la Villa", "provincia_linea": "Villaviciosa de Odón", "boletin_source_id": null, "resolver_id": "nominatim_municipio_centroid", "DS_NOMB_AMB": null, "geometry_scope": "municipio_centroid_fallback"}, "geometry": {"type": "Point", "coordinates": [-3.9002334, 40.3573787]}}, {"type": "Feature", "properties": {"stable_key": "e4cb906baae05dc314247a9f4b2eaad17e63e0a4e5395bad9384e780e56b6c6d", "municipio": "Madrid", "sector": "APR 09.01 “Camino del Barrial”", "provincia_linea": "Madrid", "boletin_source_id": null, "resolver_id": "nominatim_municipio_centroid", "DS_NOMB_AMB": null, "geometry_scope": "municipio_centroid_fallback"}, "geometry": {"type": "Point", "coordinates": [-3.703507, 40.416782]}}, {"type": "Feature", "properties": {"stable_key": "7aad012390c107b047cd1d757f417afcf02bfaf8b6d8460c38addecc3dd4d97a", "municipio": "Fuenlabrada", "sector": "API-13, polígono “Sevilla”", "provincia_linea": "Fuenlabrada", "boletin_source_id": null, "resolver_id": "nominatim_municipio_centroid", "DS_NOMB_AMB": null, "geometry_scope": "municipio_centroid_fallback"}, "geometry": {"type": "Point", "coordinates": [-3.7923422, 40.282476]}}, {"type": "Feature", "properties": {"stable_key": "1a0d2cc0823c7a1097bbe783bb3324a9079f44d30c3955394b2e863ebcdf0c53", "municipio": "Zarzalejo", "sector": "Los Corrales del Pericón", "provincia_linea": "Zarzalejo", "boletin_source_id": null, "resolver_id": "nominatim_municipio_centroid", "DS_NOMB_AMB": null, "geometry_scope": "municipio_centroid_fallback"}, "geometry": {"type": "Point", "coordinates": [-4.1815899, 40.5483016]}}, {"type": "Feature", "properties": {"stable_key": "f95aa929c8893a64e7e9bd927715df75e539e69225e4b39ad00bb4ff858fed67", "municipio": "Pozuelo de Alarcón", "sector": "APR 4.3-06 “avenida Juan Pablo II-calle Nuestra Señora del Carmen”", "provincia_linea": "Pozuelo de Alarcón", "boletin_source_id": null, "resolver_id": "nominatim_municipio_centroid", "DS_NOMB_AMB": null, "geometry_scope": "municipio_centroid_fallback"}, "geometry": {"type": "Point", "coordinates": [-3.814834, 40.4346528]}}, {"type": "Feature", "properties": {"stable_key": "7df4e1e9e7d67c4077c784d64ceeebcdc3b2431fab88ae764e9213681d3d658a", "municipio": "Rivas-Vaciamadrid", "sector": "La Fortuna", "provincia_linea": "Rivas-Vaciamadrid", "boletin_source_id": null, "resolver_id": "nominatim_municipio_centroid", "DS_NOMB_AMB": null, "geometry_scope": "municipio_centroid_fallback"}, "geometry": {"type": "Point", "coordinates": [-3.5310879, 40.3536054]}}, {"type": "Feature", "properties": {"stable_key": "0a27ba9c0c590165b85a242b30a30f5a7ac4d35cdc2b0b43a6596f0233b1a3b8", "municipio": "San Agustín del Guadalix", "sector": "SAU-7 “Las Cabezas”", "provincia_linea": "San Agustín del Guadalix", "boletin_source_id": null, "resolver_id": "nominatim_municipio_centroid", "DS_NOMB_AMB": null, "geometry_scope": "municipio_centroid_fallback"}, "geometry": {"type": "Point", "coordinates": [-3.616004, 40.6793973]}}, {"type": "Feature", "properties": {"stable_key": "7494e6c6a644d53f6d7fc757e963b80fb8fa8a4262f255134c0b9bb80393428a", "municipio": "Villaviciosa de Odón", "sector": "Ficha 51 del Catálogo de Elementos Protegidos de Interés Histórico, Artístico y Paisajístico (edificio de la calle Lacedón, número 7)", "provincia_linea": "Villaviciosa de Odón", "boletin_source_id": null, "resolver_id": "nominatim_municipio_centroid", "DS_NOMB_AMB": null, "geometry_scope": "municipio_centroid_fallback"}, "geometry": {"type": "Point", "coordinates": [-3.9002334, 40.3573787]}}, {"type": "Feature", "properties": {"stable_key": "a91467dae95ca3bfd99aa4aa1caa8979ea730943103be42b963d9b4d3f91cf60", "municipio": "Madrid", "sector": "Méndez Álvaro M-30", "provincia_linea": "Madrid", "boletin_source_id": null, "resolver_id": "nominatim_municipio_centroid", "DS_NOMB_AMB": null, "geometry_scope": "municipio_centroid_fallback"}, "geometry": {"type": "Point", "coordinates": [-3.703507, 40.416782]}}, {"type": "Feature", "properties": {"stable_key": "7a2941291ef64f67a6ca3a5f0cc73afb114d4f174cb54e93bfa29016e242e8cc", "municipio": "Navalcarnero", "sector": "Área Homogénea AH-08, Ensanche Industrial Este", "provincia_linea": "Navalcarnero", "boletin_source_id": null, "resolver_id": "nominatim_municipio_centroid", "DS_NOMB_AMB": null, "geometry_scope": "municipio_centroid_fallback"}, "geometry": {"type": "Point", "coordinates": [-4.014299, 40.2877169]}}, {"type": "Feature", "properties": {"stable_key": "092c6e4de219f6cd8c41f73ae43ef10874a97cb81790e59b3b922b2444b71e48", "municipio": "Coslada", "sector": "Centro de Servicios del Polígono del SUNP-RI", "provincia_linea": "Coslada", "boletin_source_id": null, "resolver_id": "nominatim_municipio_centroid", "DS_NOMB_AMB": null, "geometry_scope": "municipio_centroid_fallback"}, "geometry": {"type": "Point", "coordinates": [-3.5552882, 40.423802]}}, {"type": "Feature", "properties": {"stable_key": "b899453b36aef5f74abbe9d493711ba1c78e6bcfeaca02f25ecc4df49c8be2ba", "municipio": "Móstoles", "sector": "AOS-17.2", "provincia_linea": "Móstoles, Madrid", "boletin_source_id": null, "resolver_id": "nominatim_municipio_centroid", "DS_NOMB_AMB": null, "geometry_scope": "municipio_centroid_fallback"}, "geometry": {"type": "Point", "coordinates": [-3.8649214, 40.3238525]}}, {"type": "Feature", "properties": {"stable_key": "ee13db263dfbd04ba2f0232d516b4e19d8d58e2cd338232c82080b44526eac29", "municipio": "Madrid", "sector": "Nueva Sede del BBVA", "provincia_linea": "Madrid", "boletin_source_id": null, "resolver_id": "nominatim_municipio_centroid", "DS_NOMB_AMB": null, "geometry_scope": "municipio_centroid_fallback"}, "geometry": {"type": "Point", "coordinates": [-3.703507, 40.416782]}}, {"type": "Feature", "properties": {"stable_key": "9b798ca4058a634ce1ae93501a566928dfeca2f26ab164f95f4a562b9c141af3", "municipio": "Lozoyuela-Navas-Sieteiglesias", "sector": "SAU 4, “El Tomillar”", "provincia_linea": "Lozoyuela-Navas-Sieteiglesias", "boletin_source_id": null, "resolver_id": "nominatim_municipio_centroid", "DS_NOMB_AMB": null, "geometry_scope": "municipio_centroid_fallback"}, "geometry": {"type": "Point", "coordinates": [-3.6176377, 40.9263383]}}, {"type": "Feature", "properties": {"stable_key": "69b769b13c7e858aaae81071a728e7a498c708020a8183ca48e2d13027720264", "municipio": "Madrid", "sector": "Méndez Álvaro Sur", "provincia_linea": "Madrid", "boletin_source_id": null, "resolver_id": "nominatim_municipio_centroid", "DS_NOMB_AMB": null, "geometry_scope": "municipio_centroid_fallback"}, "geometry": {"type": "Point", "coordinates": [-3.703507, 40.416782]}}, {"type": "Feature", "properties": {"stable_key": "a82a231946289c8e1815b589329580be0b14f3da284fd8f19117c48895fe47a3", "municipio": "Madrid", "sector": "Bernabéu-Opañel", "provincia_linea": "Madrid", "boletin_source_id": null, "resolver_id": "nominatim_municipio_centroid", "DS_NOMB_AMB": null, "geometry_scope": "municipio_centroid_fallback"}, "geometry": {"type": "Point", "coordinates": [-3.703507, 40.416782]}}, {"type": "Feature", "properties": {"stable_key": "7c1b1f95bec878ddcccf54800bc9b8f276364036bb298e823e8791251e8eb8e3", "municipio": "Aranjuez", "sector": "Sectores IXa “Ferrocarril” y IXb “Cerro de la Linterna Este”", "provincia_linea": "Aranjuez", "boletin_source_id": null, "resolver_id": "nominatim_municipio_centroid", "DS_NOMB_AMB": null, "geometry_scope": "municipio_centroid_fallback"}, "geometry": {"type": "Point", "coordinates": [-3.6040097, 40.0322289]}}, {"type": "Feature", "properties": {"stable_key": "31e490f12e15687a90409903bb847d9fbf6ce62f2c3705dc3b54290afb788bab", "municipio": "Fuente el Saz de Jarama", "sector": "El Pocillo-Este", "provincia_linea": "Fuente el Saz de Jarama, Madrid", "boletin_source_id": null, "resolver_id": "nominatim_municipio_centroid", "DS_NOMB_AMB": null, "geometry_scope": "municipio_centroid_fallback"}, "geometry": {"type": "Point", "coordinates": [-3.5134668, 40.6339859]}}, {"type": "Feature", "properties": {"stable_key": "90cb3826d4d33719b58e395c235847754c4460816184238808e3f238508d8286", "municipio": "Madrid", "sector": "Sevilla-Canalejas", "provincia_linea": "Madrid", "boletin_source_id": null, "resolver_id": "nominatim_municipio_centroid", "DS_NOMB_AMB": null, "geometry_scope": "municipio_centroid_fallback"}, "geometry": {"type": "Point", "coordinates": [-3.703507, 40.416782]}}, {"type": "Feature", "properties": {"stable_key": "c0cdd47cd3140e5448a9be23643e9d9fca05bf3f1c5031101bb5dd6578a1b24f", "municipio": "Pozuelo de Alarcón", "sector": "UZ 2.3-01 “Sector NE Eje Pinar”", "provincia_linea": "Pozuelo de Alarcón", "boletin_source_id": null, "resolver_id": "nominatim_municipio_centroid", "DS_NOMB_AMB": null, "geometry_scope": "municipio_centroid_fallback"}, "geometry": {"type": "Point", "coordinates": [-3.814834, 40.4346528]}}, {"type": "Feature", "properties": {"stable_key": "467279ee6de82c5c16cadd340947b80e6ec59f76f7feb0c6898d8b4707ef5a97", "municipio": "Madrid", "sector": "Calles Angelita Camarrero y Ramón Gómez de la Serna", "provincia_linea": "Madrid", "boletin_source_id": null, "resolver_id": "nominatim_municipio_centroid", "DS_NOMB_AMB": null, "geometry_scope": "municipio_centroid_fallback"},